Place_ID,Operator,Bussiness_Status,Location_Name,Address,Latitude,Longitude,Usage,Number_of_Connectors,Min_Power_kW,Max_Power_kW,Max_Charging_Type,Rapid_Charge_Available,Fast_Charge_Available,Slow_Charge_Available
157861,Unknown,Unknown,4002063,"Level B – Fulham Broadway Car Park, Fulham Road, London, SW6 1BW",51.480316,-0.194363,Public,1,22.0,22.0,Fast,No,Yes,No
77351,Total Energies (UK),Operational,Farm Lane,"10 Farm Lane, LONDON, SW6 1PS",51.4813106555,-0.197749363459,Public - Membership Required,2,4.0,7.0,Fast,No,Yes,Yes
252197,SureCharge (FM Conway) (UK),Unknown,Knivet Road,"Knivet Road, Hammersmith, SW6 1JH",51.48264,-0.19847,Public - Membership Required,1,4.8,4.8,Slow,No,No,Yes
252184,SureCharge (FM Conway) (UK),Unknown,Eustace Road,"Eustace Road, Hammersmith, SW6 1JB",51.48224,-0.19926,Public - Membership Required,1,4.8,4.8,Slow,No,No,Yes
252205,SureCharge (FM Conway) (UK),Unknown,Knivet Road,"Knivet Road, Hammersmith, SW6 1JH",51.48306,-0.19883,Public - Membership Required,1,4.8,4.8,Slow,No,No,Yes
252185,SureCharge (FM Conway) (UK),Unknown,Walham Grove,"Walham Grove, Hammersmith, SW6 1QR",51.4823,-0.197637,Public - Membership Required,1,4.8,4.8,Slow,No,No,Yes
252190,SureCharge (FM Conway) (UK),Unknown,Walham Road,"Walham Road, Hammersmith, SW6 2DH",51.482498,-0.197484,Public - Membership Required,1,4.8,4.8,Slow,No,No,Yes
252195,SureCharge (FM Conway) (UK),Unknown,Walham Road,"Walham Road, Hammersmith, SW6 2DH",51.482578,-0.196887,Public - Membership Required,1,4.8,4.8,Slow,No,No,Yes
252210,SureCharge (FM Conway) (UK),Unknown,Farm Lane,"Farm Lane, Hammersmith, SW6 1QJ",51.483196,-0.196716,Public - Membership Required,1,4.8,4.8,Slow,No,No,Yes
157863,Unknown,Unknown,4002056,"Level A – Fulham Broadway Car Park, Fulham Road, London, SW6 1BW",51.480804,-0.194908,Public,1,22.0,22.0,Fast,No,Yes,No
200400,SureCharge (FM Conway) (UK),Unknown,Seagrave Road,"Seagrave Road, Hammersmith, SW61ST",51.483263,-0.194095,Public - Membership Required,1,4.8,4.8,Slow,No,No,Yes
252136,Total Energies (UK),Unknown,Waterford Road,"Waterford Road, H&F, SW6 1DL",51.480029,-0.19335,Public - Membership Required,2,3.0,7.0,Fast,No,Yes,Yes
136107,Shell Recharge Solutions (UK),Unknown,Earls Ct Square 53,"Earls Ct Square 53, London, SW5 9DG",51.489947,-0.193212,Public - Pay At Location,1,3.7,3.7,Slow,No,No,Yes
136081,Shell Recharge Solutions (UK),Unknown,Coleherne Rd 8,"Coleherne Rd 8, London, SW10 9BP",51.488692,-0.191066,Public - Pay At Location,1,3.7,3.7,Slow,No,No,Yes
252532,Shell Recharge Solutions (UK),Unknown,outside no. 65,"outside no. 65, London, SW5 9DG",51.489321,-0.192946,Public - Pay At Location,1,3.7,3.7,Slow,No,No,Yes
252493,Shell Recharge Solutions (UK),Unknown,outside no. 21,"outside no. 21, London, SW5 9LA",51.488636,-0.19477,Public - Pay At Location,1,3.7,3.7,Slow,No,No,Yes
252523,Shell Recharge Solutions (UK),Unknown,outside no. 65,"outside no. 65, London, SW5 9JZ",51.489191,-0.195506,Public - Pay At Location,1,3.7,3.7,Slow,No,No,Yes
252363,SureCharge (FM Conway) (UK),Unknown,Ongar Road,"Ongar Road, Hammersmith, SW6 1RL",51.486122,-0.198053,Public - Membership Required,1,4.8,4.8,Slow,No,No,Yes
252394,SureCharge (FM Conway) (UK),Unknown,Seagrave Road,"Seagrave Road, Hammersmith, SW61RR",51.486558,-0.196806,Public - Membership Required,1,4.8,4.8,Slow,No,No,Yes
187691,Shell Recharge Solutions (UK),Unknown,7 Eardley Cres,"7 Eardley Cres, London, SW5 9JS",51.488053,-0.195483,Public - Pay At Location,1,3.7,3.7,Slow,No,No,Yes
101382,Total Energies (UK),Operational,Seagrave Road,"35 Seagrave Road, London, SW6 1SA",51.485608,-0.195952,Public - Membership Required,2,4.0,7.0,Fast,No,Yes,Yes
252311,SureCharge (FM Conway) (UK),Unknown,Seagrave Road,"Seagrave Road, Hammersmith, SW61UE",51.485162,-0.195533,Public - Membership Required,1,4.8,4.8,Slow,No,No,Yes
252267,SureCharge (FM Conway) (UK),Unknown,Seagrave Road,"Seagrave Road, Hammersmith, SW61SR",51.484305,-0.195187,Public - Membership Required,1,4.8,4.8,Slow,No,No,Yes
252262,Total Energies (UK),Unknown,Seagrave Road - Site 2,"Seagrave Road - Site 2, H&F, SW6 1SR",51.484226,-0.19497,Public - Membership Required,2,3.0,7.0,Fast,No,Yes,Yes
200402,SureCharge (FM Conway) (UK),Unknown,Seagrave Road,"Seagrave Road, Hammersmith, SW61ST",51.483806,-0.194628,Public - Membership Required,1,4.8,4.8,Slow,No,No,Yes
252224,SureCharge (FM Conway) (UK),Unknown,Micklethawite Road,"Micklethawite Road, Hammersmith, SW6 1QE",51.48352,-0.19565,Public - Membership Required,1,4.8,4.8,Slow,No,No,Yes
252249,SureCharge (FM Conway) (UK),Unknown,Micklethwaite Road,"Micklethwaite Road, Hammersmith, SW6 1QE",51.484007,-0.196229,Public - Membership Required,1,4.8,4.8,Slow,No,No,Yes
252238,SureCharge (FM Conway) (UK),Unknown,Farm Lane,"Farm Lane, Hammersmith, SW6 1JZ",51.483791,-0.197232,Public - Membership Required,1,4.8,4.8,Slow,No,No,Yes
252260,SureCharge (FM Conway) (UK),Unknown,Tamworth Street,"Tamworth Street, Hammersmith, SW6 1LE",51.484207,-0.197717,Public - Membership Required,1,4.8,4.8,Slow,No,No,Yes
252273,SureCharge (FM Conway) (UK),Unknown,Tamworth Street,"Tamworth Street, Hammersmith, SW6 1LJ",51.484436,-0.198118,Public - Membership Required,1,4.8,4.8,Slow,No,No,Yes
252264,Believ,Unknown,Halford Road,"Halford Road, Fulham, SW6 1JY",51.484246,-0.197095,Public - Pay At Location,2,22.0,22.0,Fast,No,Yes,No
252336,SureCharge (FM Conway) (UK),Unknown,Ongar Road,"Ongar Road, Hammersmith, SW6 1RL",51.48563,-0.19758,Public - Membership Required,1,4.8,4.8,Slow,No,No,Yes
252344,SureCharge (FM Conway) (UK),Unknown,Ongar Road,"Ongar Road, Hammersmith, SW6 1RJ",51.485828,-0.19769,Public - Membership Required,1,4.8,4.8,Slow,No,No,Yes
252334,SureCharge (FM Conway) (UK),Unknown,Sedlescombe Road,"Sedlescombe Road, Hammersmith, SW61RJ",51.48558,-0.197997,Public - Membership Required,1,4.8,4.8,Slow,No,No,Yes
252286,SureCharge (FM Conway) (UK),Unknown,Racton Road,"Racton Road, Hammersmith, SW6 1LG",51.484765,-0.19807,Public - Membership Required,1,4.8,4.8,Slow,No,No,Yes
252313,SureCharge (FM Conway) (UK),Unknown,Sedlescombe Road,"Sedlescombe Road, Hammersmith, SW6 1LF",51.485191,-0.198685,Public - Membership Required,1,4.8,4.8,Slow,No,No,Yes
252326,Shell Recharge Solutions (UK),Unknown,112 Tamworth Street,"112 Tamworth Street, London, SW6 1LE",51.485357,-0.198248,Public - Pay At Location,1,3.7,3.7,Slow,No,No,Yes
252319,SureCharge (FM Conway) (UK),Unknown,Sedlescombe Road,"Sedlescombe Road, Hammersmith, SW61RB",51.485282,-0.198961,Public - Membership Required,1,4.8,4.8,Slow,No,No,Yes
252306,SureCharge (FM Conway) (UK),Unknown,Sedlescombe Road,"Sedlescombe Road, Hammersmith, SW61RE",51.485051,-0.199561,Public - Membership Required,1,4.8,4.8,Slow,No,No,Yes
252281,SureCharge (FM Conway) (UK),Unknown,Racton Road,"Racton Road, Hammersmith, SW6 1LP",51.484657,-0.198999,Public - Membership Required,1,4.8,4.8,Slow,No,No,Yes
134945,Shell Recharge Solutions (UK),Unknown,Asset No. LC 6,"Asset No. LC 6, London, SW6 1JX",51.483719,-0.198331,Public - Pay At Location,1,3.7,3.7,Slow,No,No,Yes
252217,Shell Recharge Solutions (UK),Unknown,Shell Recharge/Ubitricity,"null, London, SW6 1JH",51.483352,-0.199258,Public - Pay At Location,1,3.7,3.7,Slow,No,No,Yes
252214,Shell Recharge Solutions (UK),Unknown,18 Halford Road,"18 Halford Road, London, SW6 1JT",51.483267,-0.199625,Public - Pay At Location,1,3.7,3.7,Slow,No,No,Yes
252196,SureCharge (FM Conway) (UK),Unknown,Armadale Road,"Armadale Road, Hammersmith, SW6 1NS",51.48263,-0.19968,Public - Membership Required,1,4.8,4.8,Slow,No,No,Yes
252181,SureCharge (FM Conway) (UK),Unknown,North End Road,"North End Road, Hammersmith, SW6 1NY",51.482155,-0.199932,Public - Membership Required,1,7.0,7.0,Fast,No,Yes,No
264619,Shell Recharge Solutions (UK),Unknown,opposite 32 Bramham Gardens/Bolton Gardens,"opposite 32 Bramham Gardens/Bolton Gardens, London, SW5 0AQ",51.490954,-0.190554,Public - Pay At Location,1,3.7,3.7,Slow,No,No,Yes
268034,Total Energies (UK),Unknown,Courtfield Gardens,"25 Courtfield Gardens, Kensington and Chelsea, SW5 0PH",51.4932,-0.19015,Public,1,22.0,22.0,Fast,No,Yes,No
252721,Shell Recharge Solutions (UK),Unknown,12C,"12C, London, SW5 0EN",51.492522,-0.190633,Public - Pay At Location,1,3.7,3.7,Slow,No,No,Yes
252706,Shell Recharge Solutions (UK),Unknown,39 Barkston Gardens,"39 Barkston Gardens, London, SW5 0ER",51.49216,-0.190216,Public - Pay At Location,1,3.7,3.7,Slow,No,No,Yes
252683,Shell Recharge Solutions (UK),Unknown,53A Barkston Gardens,"53A Barkston Gardens, London, SW5 0ES",51.491804,-0.190692,Public - Pay At Location,1,3.7,3.7,Slow,No,No,Yes
136135,Shell Recharge Solutions (UK),Unknown,outside Best Western Hotel,"outside Best Western Hotel, London, SW5 0EN",51.491768,-0.19194,Public - Membership Required,1,3.7,3.7,Slow,No,No,Yes
136127,Shell Recharge Solutions (UK),Unknown,Penywern Rd 5A,"Penywern Rd 5A, London, SW5 9TT",51.491224,-0.193107,Public - Pay At Location,1,3.7,3.7,Slow,No,No,Yes
136125,Shell Recharge Solutions (UK),Unknown,Penywern Rd 20,"Penywern Rd 20, London, SW5 9SU",51.491149,-0.193257,Public - Pay At Location,1,3.7,3.7,Slow,No,No,Yes
136118,Shell Recharge Solutions (UK),Unknown,Earls Ct Square 1,"Earls Ct Square 1, London, SW5 9BY",51.490706,-0.191501,Public - Membership Required,1,3.7,3.7,Slow,No,No,Yes
252605,Shell Recharge Solutions (UK),Unknown,10 Earls Court Square,"10 Earls Court Square, London, SW5 9DP",51.490422,-0.192208,Public - Pay At Location,1,3.7,3.7,Slow,No,No,Yes
252579,Total Energies (UK),Unknown,Penywern Road,"Penywern Road, K&C, SW5 9AD",51.490023,-0.19477,Public - Membership Required,2,3.0,7.0,Fast,No,Yes,Yes
15600,Zero Carbon World,Operational,K+K Hotel George Kensington,"1 - 15 Templeton Place,  SW5 9NB",51.4925145800465,-0.19522289403551,Public,2,3.0,7.0,Fast,No,Yes,Yes
68526,Total Energies (UK),Operational,Nevern Place,"23 Nevern Place, London, SW5 9NR",51.4929319426,-0.195605628099,Public - Membership Required,2,4.0,7.0,Fast,No,Yes,Yes
252764,Shell Recharge Solutions (UK),Unknown,Longridge Rd 7,"Longridge Rd 7, London, SW5 9SB",51.493752,-0.195623,Public - Pay At Location,1,3.7,3.7,Slow,No,No,Yes
252708,Shell Recharge Solutions (UK),Unknown,6A Nevern Square,"6A Nevern Square, London, SW5 9NN",51.492204,-0.196381,Public - Pay At Location,1,3.7,3.7,Slow,No,No,Yes
252679,Shell Recharge Solutions (UK),Unknown,Nevern Square 30,"Nevern Square 30, London, SW5 9PE",51.491712,-0.196876,Public - Pay At Location,1,3.7,3.7,Slow,No,No,Yes
285869,Shell Recharge Solutions (UK),Unknown,55 Nevern Square,"55 Nevern Square, London, SW5 9PL",51.492457,-0.197311,Public - Pay At Location,1,5.0,5.0,Slow,No,No,Yes
136138,Shell Recharge Solutions (UK),Unknown,Longridge Rd 62,"Longridge Rd 62, London, SW5 9SH",51.49258,-0.199037,Public - Pay At Location,1,3.7,3.7,Slow,No,No,Yes
252607,Shell Recharge Solutions (UK),Unknown,outside no.100,"outside no.100, London, SW5 9EE",51.490439,-0.198359,Public - Pay At Location,1,3.7,3.7,Slow,No,No,Yes
136116,Shell Recharge Solutions (UK),Unknown,110 Philbeach Gardens,"110 Philbeach Gardens, London, SW5 9ET",51.490629,-0.19731,Public - Pay At Location,1,3.7,3.7,Slow,No,No,Yes
136113,Shell Recharge Solutions (UK),Unknown,Philbeach Gardens 13B,"Philbeach Gardens 13B, London, SW5 9DY",51.490453,-0.197552,Public - Pay At Location,1,3.7,3.7,Slow,No,No,Yes
252686,Shell Recharge Solutions (UK),Unknown,64 Philbeach Gardens,"64 Philbeach Gardens, London, SW5 9EE",51.49184,-0.199996,Public - Pay At Location,1,3.7,3.7,Slow,No,No,Yes
252691,Shell Recharge Solutions (UK),Unknown,outside no. 66,"outside no. 66, London, SW5 9ET",51.491965,-0.199815,Public - Pay At Location,1,3.7,3.7,Slow,No,No,Yes
285912,Shell Recharge Solutions (UK),Unknown,1 Edwardes Square,"1 Edwardes Square, London, W8 6HE",51.498144,-0.199941,Public - Pay At Location,1,5.0,5.0,Slow,No,No,Yes
253081,Shell Recharge Solutions (UK),Unknown,9 Allen street,"9 Allen street, London, W8 6BJ",51.499115,-0.195576,Public - Pay At Location,1,3.7,3.7,Slow,No,No,Yes
252987,Shell Recharge Solutions (UK),Unknown,outside no. 9,"outside no. 9, London, W8 6AA",51.497959,-0.197137,Public - Pay At Location,1,3.7,3.7,Slow,No,No,Yes
252959,Shell Recharge Solutions (UK),Unknown,outside no. 85,"outside no. 85, London, W8 6XB",51.497479,-0.197114,Public - Pay At Location,1,3.7,3.7,Slow,No,No,Yes
285907,Shell Recharge Solutions (UK),Unknown,1 Pembroke Villas,"1 Pembroke Villas, London, W8 6PG",51.496119,-0.198764,Public - Pay At Location,1,5.0,5.0,Slow,No,No,Yes
68518,Total Energies (UK),Operational,Pembroke Villas,"Pembroke Villas, London, W8 6PG",51.4954662797,-0.19843003466,Public - Membership Required,2,4.0,7.0,Fast,No,Yes,Yes
252878,Shell Recharge Solutions (UK),Unknown,60B Stratford Road,"60B Stratford Road, London, W8 6QA",51.496042,-0.196059,Public - Pay At Location,1,3.7,3.7,Slow,No,No,Yes
252838,Shell Recharge Solutions (UK),Unknown,outside flank wall of no. 99 Earl's Court Road,"outside flank wall of no. 99 Earl's Court Road, London, W8 6JE",51.495438,-0.195607,Public - Pay At Location,1,3.7,3.7,Slow,No,No,Yes
252850,Shell Recharge Solutions (UK),Unknown,outside no. 134,"outside no. 134, London, W8 6JE",51.495654,-0.194861,Public - Pay At Location,1,3.7,3.7,Slow,No,No,Yes
252901,Shell Recharge Solutions (UK),Unknown,outside No. 1 Alma Terrace,"outside No. 1 Alma Terrace, London, W8 6QY",51.496553,-0.193979,Public - Pay At Location,1,3.7,3.7,Slow,No,No,Yes
252913,Shell Recharge Solutions (UK),Unknown,4,"4, London, W8 6QY",51.496753,-0.194109,Public - Pay At Location,1,3.7,3.7,Slow,No,No,Yes
252969,Shell Recharge Solutions (UK),Unknown,Allen Street,"Allen Street, London, W8 6XD",51.497688,-0.194581,Public - Pay At Location,1,3.7,3.7,Slow,No,No,Yes
187705,Shell Recharge Solutions (UK),Unknown,105 Abingdon Road,"105 Abingdon Road, London, W8 6QU",51.496634,-0.195358,Public - Pay At Location,1,3.7,3.7,Slow,No,No,Yes
252917,Shell Recharge Solutions (UK),Unknown,Scarsdale Villas 59,"Scarsdale Villas 59, London, W8 6PU",51.496816,-0.19669,Public - Pay At Location,1,3.7,3.7,Slow,No,No,Yes
252930,Shell Recharge Solutions (UK),Unknown,outside no. 66,"outside no. 66, London, W8 6PP",51.49697,-0.1965,Public - Pay At Location,1,3.7,3.7,Slow,No,No,Yes
131807,Shell Recharge Solutions (UK),Operational,Abingdon Road,"Abingdon Road, London, W8 6AE",51.498533,-0.196639,Public - Pay At Location,1,3.7,3.7,Slow,No,No,Yes
253079,Shell Recharge Solutions (UK),Unknown,outside no. 30,"outside no. 30, London, W8 6TH",51.499076,-0.193261,Public - Pay At Location,1,3.7,3.7,Slow,No,No,Yes
253015,Shell Recharge Solutions (UK),Unknown,Abingdon Villas,"Abingdon Villas, London, W8 6BS",51.498225,-0.193805,Public - Pay At Location,1,3.7,3.7,Slow,No,No,Yes
252983,Shell Recharge Solutions (UK),Unknown,Marloes Road,"Marloes Road, London, W8 5LG",51.497887,-0.192612,Public - Pay At Location,1,3.7,3.7,Slow,No,No,Yes
99270,BP Pulse (UK),Operational,Holiday Inn London Kensington,"Holiday Inn London Kensington,  W8 5SP",51.498798,-0.1916,Public - Membership Required,3,43.0,50.0,Rapid,Yes,No,No
252910,Shell Recharge Solutions (UK),Unknown,Stratford Studios 1,"Stratford Studios 1, London, W8 6RG",51.496741,-0.192521,Public - Pay At Location,1,3.7,3.7,Slow,No,No,Yes
121416,Total Energies (UK),Operational,Lexham Gardens,"92 Lexham Gardens, London, W8 6JQ",51.495923,-0.192491,Public - Membership Required,2,4.0,7.0,Fast,No,Yes,Yes
252771,Shell Recharge Solutions (UK),Unknown,6 Wallgrave Road,"6 Wallgrave Road, London, SW5 0RL",51.493916,-0.193385,Public - Pay At Location,1,3.7,3.7,Slow,No,No,Yes
252871,Total Energies (UK),Unknown,Lexham Gardens,"Lexham Gardens, K&C, W8 5JE",51.495904,-0.191224,Public - Membership Required,2,3.0,7.0,Fast,No,Yes,Yes
253096,Shell Recharge Solutions (UK),Unknown,31 Iverna Gardens,"31 Iverna Gardens, London, W8 6TW",51.49931,-0.193825,Public - Pay At Location,1,3.7,3.7,Slow,No,No,Yes
136222,Shell Recharge Solutions (UK),Unknown,Phillimore Gardens 44,"Phillimore Gardens 44, London, W8 7QG",51.501928,-0.199713,Public - Pay At Location,1,3.7,3.7,Slow,No,No,Yes
253269,Shell Recharge Solutions (UK),Unknown,15 Duchess of Bedford's Walk,"15 Duchess of Bedford's Walk, London, W8 7QW",51.502758,-0.198474,Public - Pay At Location,1,3.7,3.7,Slow,No,No,Yes
253249,Shell Recharge Solutions (UK),Unknown,Argyll Rd 49,"Argyll Rd 49, London, W8 7BS",51.502147,-0.197086,Public - Pay At Location,1,3.7,3.7,Slow,No,No,Yes
125863,Total Energies (UK),Operational,Hornton Street,"34 Hornton Street, London, W8 4NT",51.502432,-0.194683,Public - Membership Required,3,4.0,22.0,Fast,No,Yes,Yes
7651,Business Owner at Location,Operational,Kensington Town Hall Car Park,"Phillimore Walk, Kensington, W8 7NX",51.50108931376486,-0.19462108612060547,Public - Pay At Location,1,3.0,3.0,Slow,No,No,Yes
136206,Shell Recharge Solutions (UK),Unknown,14 Phillimore Gardens,"14 Phillimore Gardens, Chelsea, W8 7BJ",51.500328,-0.19789,Public - Membership Required,1,3.7,3.7,Slow,No,No,Yes
253199,Shell Recharge Solutions (UK),Unknown,19 Stafford Terrace,"19 Stafford Terrace, London, W8 7BL",51.500711,-0.19682,Public - Pay At Location,1,3.7,3.7,Slow,No,No,Yes
136220,Shell Recharge Solutions (UK),Unknown,11 Phillimore Place,"11 Phillimore Place, London, W8 7BU",51.501486,-0.198072,Public - Pay At Location,1,3.7,3.7,Slow,No,No,Yes
264970,Total Energies (UK),Unknown,Phillimore Gardens,"Phillimore Gardens, K&C, W8 7QG",51.501323,-0.199193,Public - Membership Required,2,3.0,7.0,Fast,No,Yes,Yes
253201,Shell Recharge Solutions (UK),Unknown,outside no. 38,"outside no. 38, London, W8 5HP",51.500759,-0.19056,Public - Pay At Location,1,3.7,3.7,Slow,No,No,Yes
253160,Shell Recharge Solutions (UK),Unknown,outside no. 45-61,"outside no. 45-61, London, W8 6TS",51.50016,-0.193611,Public - Pay At Location,1,3.7,3.7,Slow,No,No,Yes
136231,Shell Recharge Solutions (UK),Unknown,Kensington church street 59,"Kensington church street 59, London, W8 4BA",51.504129,-0.193031,Public - Membership Required,1,3.7,3.7,Slow,No,No,Yes
253274,Shell Recharge Solutions (UK),Unknown,Old Court Place 9,"Old Court Place 9, London, W8 4PL",51.502804,-0.19061,Public - Pay At Location,1,3.7,3.7,Slow,No,No,Yes
68516,Total Energies (UK),Operational,Palace Gardens Terrace,"104 Palace Gardens Terrace, London, W8 4RT",51.5080966904,-0.193493495199,Public - Membership Required,2,4.0,7.0,Fast,No,Yes,Yes
253412,Shell Recharge Solutions (UK),Unknown,outside no. 53,"outside no. 53, London, W8 4SB",51.507288,-0.193299,Public - Pay At Location,1,3.7,3.7,Slow,No,No,Yes
187717,Shell Recharge Solutions (UK),Unknown,3 Palace Gardens Terrace,"3 Palace Gardens Terrace, London, W8 4SA",51.505906,-0.192279,Public - Pay At Location,1,3.7,3.7,Slow,No,No,Yes
253349,Shell Recharge Solutions (UK),Unknown,outside no. 3,"outside no. 3, London, W8 4AS",51.505619,-0.19317,Public - Pay At Location,1,3.7,3.7,Slow,No,No,Yes
253347,Shell Recharge Solutions (UK),Unknown,15 Sheffield Terrace,"15 Sheffield Terrace, London, W8 7NQ",51.50558,-0.195314,Public - Pay At Location,1,3.7,3.7,Slow,No,No,Yes
253353,Shell Recharge Solutions (UK),Unknown,9 Sheffield Terrace,"9 Sheffield Terrace, London, W8 7NG",51.505656,-0.195021,Public - Pay At Location,1,3.7,3.7,Slow,No,No,Yes
253371,Shell Recharge Solutions (UK),Unknown,outside no. 33,"outside no. 33, London, W8 7EH",51.506138,-0.195846,Public - Pay At Location,1,3.7,3.7,Slow,No,No,Yes
253384,Shell Recharge Solutions (UK),Unknown,outside no. 25,"outside no. 25, London, W8 7EP",51.506606,-0.196481,Public - Pay At Location,1,3.7,3.7,Slow,No,No,Yes
187715,Shell Recharge Solutions (UK),Unknown,49 Hornton Street,"49 Hornton Street, London, W8 7NT",51.504791,-0.196199,Public - Pay At Location,1,3.7,3.7,Slow,No,No,Yes
253348,Shell Recharge Solutions (UK),Unknown,outside of no. 93,"outside of no. 93, London, W8 7EQ",51.505598,-0.197983,Public - Pay At Location,1,3.7,3.7,Slow,No,No,Yes
187714,Shell Recharge Solutions (UK),Unknown,1 Campden Hill,"1 Campden Hill, London, W8 7AD",51.504335,-0.198029,Public - Pay At Location,1,3.7,3.7,Slow,No,No,Yes
268044,Total Energies (UK),Unknown,Campden Hill,"3 Campden Hill, Kensington and Chelsea, W8 7AD",51.50444,-0.198941,Public,1,22.0,22.0,Fast,No,Yes,No
131810,Shell Recharge Solutions (UK),Operational,87 Campden Hill Road,"87 Campden Hill Road, London, W8 7BA",51.506117,-0.198794,Public - Pay At Location,1,3.7,3.7,Slow,No,No,Yes
253427,Shell Recharge Solutions (UK),Unknown,outside no. 61,"outside no. 61, London, W8 7SS",51.50758,-0.198506,Public - Pay At Location,1,3.7,3.7,Slow,No,No,Yes
253417,Shell Recharge Solutions (UK),Unknown,Campden Hill Gardens 13,"Campden Hill Gardens 13, London, W8 7AX",51.507372,-0.199739,Public - Pay At Location,1,3.7,3.7,Slow,No,No,Yes
253430,Shell Recharge Solutions (UK),Unknown,outside no. 15,"outside no. 15, London, W8 7PN",51.507638,-0.196614,Public - Pay At Location,1,3.7,3.7,Slow,No,No,Yes
253448,Shell Recharge Solutions (UK),Unknown,outside no. 35,"outside no. 35, London, W8 7SH",51.508004,-0.196025,Public - Pay At Location,1,3.7,3.7,Slow,No,No,Yes
99609,Shell Recharge Solutions (UK),Operational,Ubitricity Peel Street,"7 Peel Street, London, W8 7PA",51.507198,-0.195287,Public - Membership Required,1,3.6,3.6,Slow,No,No,Yes
99610,Shell Recharge Solutions (UK),Operational,Ubitricity Campden Street,"2 Campden Street, London, W8 7EP",51.507013,-0.194977,Public - Membership Required,1,3.6,3.6,Slow,No,No,Yes
99607,Shell Recharge Solutions (UK),Operational,Ubitricity 7 Linden Gardens,"7 Linden Gardens, London, W2 4ET",51.509945,-0.194386,Public - Membership Required,1,3.6,3.6,Slow,No,No,Yes
99608,Shell Recharge Solutions (UK),Operational,Ubitricity 1 Linden Gardens,"1 Linden Gardens, London, W2 4ET",51.509809,-0.194319,Public - Membership Required,1,3.6,3.6,Slow,No,No,Yes
126297,Total Energies (UK),Operational,Pembridge Crescent,"14 Pembridge Crescent, London, W11 3DU",51.512756,-0.199996,Public - Membership Required,3,4.0,22.0,Fast,No,Yes,Yes
253555,Shell Recharge Solutions (UK),Unknown,outside no. 14,"outside no. 14, London, W2 4ED",51.511624,-0.194316,Public - Pay At Location,1,3.7,3.7,Slow,No,No,Yes
253546,Total Energies (UK),Unknown,Pembridge Square,"Pembridge Square, K&C, W2 4ED",51.511299,-0.196465,Public - Membership Required,2,3.0,7.0,Fast,No,Yes,Yes
131812,Shell Recharge Solutions (UK),Operational,7 Kensington Park Road,"7 Kensington Park Road, London, W11 3BY",51.5104,-0.198853,Public - Pay At Location,1,3.7,3.7,Slow,No,No,Yes
268055,Total Energies (UK),Unknown,Dawson Place,"Opposite 29 Dawson Place, Kensington and Chelsea, W2 4TH",51.512295,-0.197464,Public,1,22.0,22.0,Fast,No,Yes,No
253609,Shell Recharge Solutions (UK),Unknown,41A Pembridge Villas,"41A Pembridge Villas, London, W11 3EP",51.512788,-0.197543,Public - Pay At Location,1,3.7,3.7,Slow,No,No,Yes
253637,Shell Recharge Solutions (UK),Unknown,30 Pembridge Villas,"30 Pembridge Villas, London, W11 3EL",51.513291,-0.197253,Public - Pay At Location,1,3.7,3.7,Slow,No,No,Yes
253662,Shell Recharge Solutions (UK),Unknown,30 Ledbury Rd,"30 Ledbury Rd, London, W11 2AB",51.51384,-0.198885,Public - Pay At Location,1,3.7,3.7,Slow,No,No,Yes
253696,Shell Recharge Solutions (UK),Unknown,170 Westbourne Grove,"170 Westbourne Grove, London, W11 2RW",51.514703,-0.198277,Public - Pay At Location,1,3.7,3.7,Slow,No,No,Yes
253671,Shell Recharge Solutions (UK),Unknown,9 Pembridge Villas,"9 Pembridge Villas, London, W11 3EW",51.514036,-0.196409,Public - Pay At Location,1,3.7,3.7,Slow,No,No,Yes
253665,Shell Recharge Solutions (UK),Unknown,11A Pembridge Villas,"11A Pembridge Villas, London, W11 3EW",51.513879,-0.196593,Public - Pay At Location,1,3.7,3.7,Slow,No,No,Yes
136269,Shell Recharge Solutions (UK),Unknown,Pembridge Pl 9,"Pembridge Pl 9, London, W2 4XB",51.513154,-0.195679,Public - Pay At Location,1,3.7,3.7,Slow,No,No,Yes
253677,Shell Recharge Solutions (UK),Unknown,4A Hereford Road,"4A Hereford Road, London, W2 4AA",51.514315,-0.193658,Public - Pay At Location,1,3.7,3.7,Slow,No,No,Yes
253690,Shell Recharge Solutions (UK),Unknown,27 Hereford Road,"27 Hereford Road, London, W2 4TQ",51.514506,-0.193709,Public - Pay At Location,1,3.7,3.7,Slow,No,No,Yes
253672,Shell Recharge Solutions (UK),Unknown,13 Hereford Road,"13 Hereford Road, London, W2 4AB",51.514101,-0.193619,Public - Pay At Location,1,3.7,3.7,Slow,No,No,Yes
286068,Shell Recharge Solutions (UK),Unknown,8 Garway Road,"8 Garway Road, London, W2 4NH",51.514808,-0.191723,Public - Pay At Location,1,5.0,5.0,Slow,No,No,Yes
253654,Shell Recharge Solutions (UK),Unknown,40 Leinster Square,"40 Leinster Square, London, W2 4PT",51.513659,-0.191732,Public - Pay At Location,1,3.7,3.7,Slow,No,No,Yes
253652,Shell Recharge Solutions (UK),Unknown,44 Leinster Square,"44 Leinster Square, London, W2 4PU",51.513612,-0.192122,Public - Pay At Location,1,3.7,3.7,Slow,No,No,Yes
253618,Shell Recharge Solutions (UK),Unknown,8 Prince's Square,"8 Prince's Square, London, W2 4NP",51.512908,-0.192182,Public - Pay At Location,1,3.7,3.7,Slow,No,No,Yes
253621,Shell Recharge Solutions (UK),Unknown,17 Prince's Square,"17 Prince's Square, London, W2 4NT",51.512934,-0.191843,Public - Pay At Location,1,3.7,3.7,Slow,No,No,Yes
253612,Shell Recharge Solutions (UK),Unknown,2 Prince's Square,"2 Prince's Square, London, W2 4NP",51.512824,-0.193002,Public - Pay At Location,1,3.7,3.7,Slow,No,No,Yes
253614,Shell Recharge Solutions (UK),Unknown,7 Prince's Square,"7 Prince's Square, London, W2 4NT",51.512859,-0.192607,Public - Pay At Location,1,3.7,3.7,Slow,No,No,Yes
136273,Shell Recharge Solutions (UK),Unknown,Prince's Square 67,"Prince's Square 67, London, W2 4NY",51.513367,-0.193393,Public - Pay At Location,1,3.7,3.7,Slow,No,No,Yes
253597,Shell Recharge Solutions (UK),Unknown,25 Hereford Road,"25 Hereford Road, London, W2 4JE",51.512471,-0.193198,Public - Pay At Location,1,3.7,3.7,Slow,No,No,Yes
253563,Shell Recharge Solutions (UK),Unknown,87 Moscow Road,"87 Moscow Road, London, W2 4EL",51.511861,-0.193101,Public - Pay At Location,1,3.7,3.7,Slow,No,No,Yes
253537,Shell Recharge Solutions (UK),Unknown,outside no. 30,"outside no. 30, London, W2 4NA",51.510793,-0.193474,Public - Pay At Location,1,3.7,3.7,Slow,No,No,Yes
253524,Shell Recharge Solutions (UK),Unknown,2A Palace Court,"2A Palace Court, London, W2 4HR",51.510188,-0.191751,Public - Pay At Location,1,3.7,3.7,Slow,No,No,Yes
173530,Shell Recharge Solutions (UK),Unknown,27 Palace Court,"27 Palace Court, London, W2 4LP",51.51102,-0.192002,Public - Pay At Location,1,3.7,3.7,Slow,No,No,Yes
253554,Shell Recharge Solutions (UK),Unknown,47 Palace Court,"47 Palace Court, London, W2 4LS",51.51162,-0.192367,Public - Pay At Location,1,3.7,3.7,Slow,No,No,Yes
253560,Shell Recharge Solutions (UK),Unknown,Shell Recharge/Ubitricity,"null, London, W2 4LD",51.511713,-0.190737,Public - Pay At Location,1,5.0,5.0,Slow,No,No,Yes
264634,Shell Recharge Solutions (UK),Unknown,Shell Recharge/Ubitricity,"null, London, W2 4JZ",51.511086,-0.190602,Public - Pay At Location,1,5.0,5.0,Slow,No,No,Yes
253592,Shell Recharge Solutions (UK),Unknown,59 Moscow Road,"59 Moscow Road, London, W2 4JS",51.512377,-0.190174,Public - Pay At Location,1,3.7,3.7,Slow,No,No,Yes
253638,Shell Recharge Solutions (UK),Unknown,33 Prince's Square,"33 Prince's Square, London, W2 4NJ",51.513331,-0.190634,Public - Pay At Location,1,3.7,3.7,Slow,No,No,Yes
136274,Shell Recharge Solutions (UK),Unknown,Kensington Gardens Square 22,"Kensington Gardens Square 22, London, W2 4BE",51.513792,-0.190341,Public - Pay At Location,1,3.7,3.7,Slow,No,No,Yes
253684,Shell Recharge Solutions (UK),Unknown,Shell Recharge/Ubitricity,"null, London, W2 4BG",51.51441,-0.190613,Public - Membership Required,1,3.7,3.7,Slow,No,No,Yes
253676,Shell Recharge Solutions (UK),Unknown,29 Kensington Gardens Square,"29 Kensington Gardens Square, London, W2 4DJ",51.514277,-0.19063,Public - Pay At Location,1,3.7,3.7,Slow,No,No,Yes
253744,Shell Recharge Solutions (UK),Unknown,3 Westbourne Grove Terrace,"3 Westbourne Grove Terrace, London, W2 5RH",51.51592,-0.190129,Public - Pay At Location,1,3.7,3.7,Slow,No,No,Yes
253803,Shell Recharge Solutions (UK),Unknown,Shell Recharge/Ubitricity,"null, London, W2 5NS",51.517,-0.19086,Public - Pay At Location,1,5.0,5.0,Slow,No,No,Yes
264647,Shell Recharge Solutions (UK),Unknown,Shell Recharge/Ubitricity,"null, London, W2 5PU",51.517,-0.1901,Public - Pay At Location,1,5.0,5.0,Slow,No,No,Yes
136301,Shell Recharge Solutions (UK),Unknown,Westbourne Park Villas 24,"Westbourne Park Villas 24, London, W2 5EA",51.518888,-0.190945,Public - Pay At Location,1,3.7,3.7,Slow,No,No,Yes
286072,Shell Recharge Solutions (UK),Unknown,34 Westbourne Park Road,"34 Westbourne Park Road, London, W2 5PH",51.518069,-0.19132,Public - Pay At Location,1,5.0,5.0,Slow,No,No,Yes
136299,Shell Recharge Solutions (UK),Unknown,LC 31,"LC 31, London, W2 5QD",51.518178,-0.192057,Public - Membership Required,1,3.7,3.7,Slow,No,No,Yes
253891,Shell Recharge Solutions (UK),Unknown,58 Westbourne Park Villas,"58 Westbourne Park Villas, London, W2 5EB",51.519033,-0.192826,Public - Pay At Location,1,3.7,3.7,Slow,No,No,Yes
253855,Shell Recharge Solutions (UK),Unknown,62 Westbourne Park Road,"62 Westbourne Park Road, London, W2 5PJ",51.518223,-0.192945,Public - Pay At Location,1,3.7,3.7,Slow,No,No,Yes
136296,Shell Recharge Solutions (UK),Unknown,Talbot Rd 11,"Talbot Rd 11, London, W2 5JE",51.517883,-0.19344,Public - Pay At Location,1,3.7,3.7,Slow,No,No,Yes
136282,Shell Recharge Solutions (UK),Unknown,Kensington Gardens Square 42,"Kensington Gardens Square 42, London, W2 4BQ",51.51498,-0.191034,Public - Pay At Location,1,3.7,3.7,Slow,No,No,Yes
253746,Shell Recharge Solutions (UK),Unknown,Chepstow Rd 12A,"Chepstow Rd 12A, London, W2 5BD",51.515937,-0.195401,Public - Membership Required,1,3.7,3.7,Slow,No,No,Yes
253761,Shell Recharge Solutions (UK),Unknown,52 Hereford Road,"52 Hereford Road, London, W2 5AJ",51.51617,-0.194164,Public - Pay At Location,1,3.7,3.7,Slow,No,No,Yes
253777,Shell Recharge Solutions (UK),Unknown,69 Hereford Road,"69 Hereford Road, London, W2 5BB",51.51639,-0.19437,Public - Pay At Location,1,3.7,3.7,Slow,No,No,Yes
253807,Shell Recharge Solutions (UK),Unknown,90 Hereford Road,"90 Hereford Road, London, W2 5AL",51.517064,-0.194467,Public - Pay At Location,1,3.7,3.7,Slow,No,No,Yes
136287,Shell Recharge Solutions (UK),Unknown,Lamp Column 6,"Lamp Column 6, London, W2 5BP",51.516914,-0.195697,Public - Membership Required,1,3.7,3.7,Slow,No,No,Yes
253821,Shell Recharge Solutions (UK),Unknown,Talbot Rd 43,"Talbot Rd 43, London, W2 5JH",51.517376,-0.196353,Public - Pay At Location,1,3.7,3.7,Slow,No,No,Yes
253818,Shell Recharge Solutions (UK),Unknown,Talbot Rd 36,"Talbot Rd 36, London, W2 5LJ",51.517337,-0.196587,Public - Pay At Location,1,3.7,3.7,Slow,No,No,Yes
253800,Shell Recharge Solutions (UK),Unknown,31 Northumberland Place,"31 Northumberland Place, London, W2 5AS",51.516974,-0.196588,Public - Pay At Location,1,3.7,3.7,Slow,No,No,Yes
253735,Shell Recharge Solutions (UK),Unknown,16A Artesian Road,"16A Artesian Road, London, W2 5AR",51.515636,-0.196387,Public - Pay At Location,1,3.7,3.7,Slow,No,No,Yes
253733,Shell Recharge Solutions (UK),Unknown,7 Artesian Road,"7 Artesian Road, London, W2 5DA",51.515586,-0.19609,Public - Pay At Location,1,3.7,3.7,Slow,No,No,Yes
253701,Shell Recharge Solutions (UK),Unknown,144A Westbourne Grove,"144A Westbourne Grove, London, W11 2RR",51.514866,-0.196662,Public - Pay At Location,1,3.7,3.7,Slow,No,No,Yes
253721,Shell Recharge Solutions (UK),Unknown,15 Needham Road,"15 Needham Road, London, W11 2RP",51.515324,-0.197342,Public - Pay At Location,1,3.7,3.7,Slow,No,No,Yes
253717,Shell Recharge Solutions (UK),Unknown,6 Needham Road,"6 Needham Road, London, W11 2RP",51.515248,-0.197175,Public - Pay At Location,1,3.7,3.7,Slow,No,No,Yes
253741,Shell Recharge Solutions (UK),Unknown,38 Sutherland Place,"38 Sutherland Place, London, W2 5BZ",51.515899,-0.196956,Public - Pay At Location,1,3.7,3.7,Slow,No,No,Yes
253730,Shell Recharge Solutions (UK),Unknown,39 Artesian Road,"39 Artesian Road, London, W2 5DB",51.515508,-0.197728,Public - Pay At Location,1,3.7,3.7,Slow,No,No,Yes
253745,Shell Recharge Solutions (UK),Unknown,Moorhouse Rd 11,"Moorhouse Rd 11, London, W2 5DH",51.51593,-0.197995,Public - Pay At Location,1,3.7,3.7,Slow,No,No,Yes
53013,BP Pulse (UK),Operational,Artesian Road,"Artesian Road, London, W2 5DB",51.515495,-0.199114,Public - Membership Required,2,3.0,7.0,Fast,No,Yes,Yes
253743,Shell Recharge Solutions (UK),Unknown,Courtnell St 11,"Courtnell St 11, London, W2 5BX",51.515912,-0.198715,Public - Pay At Location,1,3.7,3.7,Slow,No,No,Yes
253789,Shell Recharge Solutions (UK),Unknown,Courtnell St 38,"Courtnell St 38, London, W2 5BX",51.516616,-0.198907,Public - Pay At Location,1,3.7,3.7,Slow,No,No,Yes
253771,Shell Recharge Solutions (UK),Unknown,Courtnell St 24,"Courtnell St 24, London, W2 5BX",51.516311,-0.198804,Public - Pay At Location,1,3.7,3.7,Slow,No,No,Yes
253760,Shell Recharge Solutions (UK),Unknown,20 Courtnell Street,"20 Courtnell Street, London, W2 5BX",51.516166,-0.198773,Public - Pay At Location,1,3.7,3.7,Slow,No,No,Yes
253802,Shell Recharge Solutions (UK),Unknown,Talbot Rd 79,"Talbot Rd 79, London, W2 5JN",51.516997,-0.198634,Public - Pay At Location,1,3.7,3.7,Slow,No,No,Yes
253791,Shell Recharge Solutions (UK),Unknown,Moorhouse Rd 22,"Moorhouse Rd 22, London, W2 5DH",51.51664,-0.198174,Public - Pay At Location,1,3.7,3.7,Slow,No,No,Yes
253840,Shell Recharge Solutions (UK),Unknown,53 Saint Stephen's Gardens,"53 Saint Stephen's Gardens, London, W2 5NJ",51.517908,-0.197241,Public - Pay At Location,1,3.7,3.7,Slow,No,No,Yes
253842,Shell Recharge Solutions (UK),Unknown,47 Saint Stephen's Gardens,"47 Saint Stephen's Gardens, London, W2 5NA",51.517962,-0.196915,Public - Pay At Location,1,3.7,3.7,Slow,No,No,Yes
253856,Shell Recharge Solutions (UK),Unknown,56 Saint Stephen's Gardens,"56 Saint Stephen's Gardens, London, W2 5NJ",51.518258,-0.197116,Public - Pay At Location,1,3.7,3.7,Slow,No,No,Yes
132773,Total Energies (UK),Operational,Shrewsbury Road,"Opposite 16 Shrewsbury Road, London, W2 5PR",51.518558,-0.197807,Public - Membership Required,4,4.0,22.0,Fast,No,Yes,Yes
253857,Shell Recharge Solutions (UK),Unknown,162 Westbourne Park Road,"162 Westbourne Park Road, London, W11 1BT",51.518267,-0.199734,Public - Pay At Location,1,3.7,3.7,Slow,No,No,Yes
253868,Shell Recharge Solutions (UK),Unknown,2A Aldridge Road Villas,"2A Aldridge Road Villas, London, W11 1BP",51.518431,-0.199663,Public - Pay At Location,1,3.7,3.7,Slow,No,No,Yes
253904,Shell Recharge Solutions (UK),Unknown,Great Western Rd,"Great Western Rd, London, W2 5UE",51.519414,-0.199199,Public - Pay At Location,1,3.7,3.7,Slow,No,No,Yes
253881,ESB Energy (UK),Unknown,Westbourne Park Road,"Westbourne Park Road, Westminster, W2 5QL",51.51881,-0.19696,Public - Pay At Location,2,50.0,50.0,Rapid,Yes,No,No
253886,Shell Recharge Solutions (UK),Unknown,117 Westbourne Park Road,"117 Westbourne Park Road, London, W2 5QL",51.518942,-0.196792,Public - Pay At Location,1,3.7,3.7,Slow,No,No,Yes
253860,Shell Recharge Solutions (UK),Unknown,50 Saint Stephen's Gardens,"50 Saint Stephen's Gardens, London, W2 5NJ",51.518302,-0.196873,Public - Pay At Location,1,3.7,3.7,Slow,No,No,Yes
253852,Shell Recharge Solutions (UK),Unknown,41 Saint Stephen's Gardens,"41 Saint Stephen's Gardens, London, W2 5NA",51.518146,-0.196786,Public - Pay At Location,1,3.7,3.7,Slow,No,No,Yes
253887,Shell Recharge Solutions (UK),Unknown,11 Aldridge Rd Villas,"11 Aldridge Rd Villas, London, W11 1BL",51.518945,-0.199971,Public - Pay At Location,1,3.7,3.7,Slow,No,No,Yes
253786,Shell Recharge Solutions (UK),Unknown,outside no. 123,"outside no. 123, London, W11 2AQ",51.516541,-0.199868,Public - Pay At Location,1,3.7,3.7,Slow,No,No,Yes
253919,Shell Recharge Solutions (UK),Unknown,SHELL RECHARGE WESTBOURNE,"223 Harrow Road, London, W2 5EH",51.520063,-0.191002,Public - Pay At Location,3,43.0,50.0,Rapid,Yes,No,No
136310,Shell Recharge Solutions (UK),Unknown,Great Western Rd 106,"Great Western Rd 106, London, W11 1AF",51.520042,-0.199714,Public - Pay At Location,1,3.7,3.7,Slow,No,No,Yes
173542,Shell Recharge Solutions (UK),Unknown,1 Alfred Road,"1 Alfred Road, London, W2 5EU",51.520988,-0.195104,Public - Pay At Location,1,3.7,3.7,Slow,No,No,Yes
264659,Shell Recharge Solutions (UK),Unknown,1 Alfred Road,"1 Alfred Road, London, W2 5EU",51.521138,-0.194403,Public - Pay At Location,1,3.7,3.7,Slow,No,No,Yes
254070,Shell Recharge Solutions (UK),Unknown,19 Elgin Avenue,"19 Elgin Avenue, London, W9 3PR",51.524685,-0.199504,Public - Pay At Location,1,3.7,3.7,Slow,No,No,Yes
254074,Shell Recharge Solutions (UK),Unknown,19 Elgin Avenue,"19 Elgin Avenue, London, W9 3PR",51.524776,-0.199413,Public - Pay At Location,1,3.7,3.7,Slow,No,No,Yes
254077,Shell Recharge Solutions (UK),Unknown,38 Elgin Avenue,"38 Elgin Avenue, London, W9 3QT",51.524885,-0.198732,Public - Pay At Location,1,3.7,3.7,Slow,No,No,Yes
254067,Shell Recharge Solutions (UK),Unknown,33 Chippenham Road,"33 Chippenham Road, London, W9 2AT",51.524588,-0.197415,Public - Pay At Location,1,3.7,3.7,Slow,No,No,Yes
173550,Shell Recharge Solutions (UK),Unknown,15B Chippenham Road,"15B Chippenham Road, London, W9 2AH",51.524148,-0.197645,Public - Pay At Location,1,3.7,3.7,Slow,No,No,Yes
254040,Shell Recharge Solutions (UK),Unknown,Shell Recharge/Ubitricity,"null, London, W9 2AX",51.523867,-0.195035,Public - Pay At Location,1,5.0,5.0,Slow,No,No,Yes
254032,Shell Recharge Solutions (UK),Unknown,15 Marylands Road,"15 Marylands Road, London, W9 2DU",51.523637,-0.194429,Public - Pay At Location,1,3.7,3.7,Slow,No,No,Yes
254034,Shell Recharge Solutions (UK),Unknown,Shell Recharge/Ubitricity,"null, London, W9 2DU",51.523659,-0.194445,Public - Pay At Location,1,5.0,5.0,Slow,No,No,Yes
254046,Shell Recharge Solutions (UK),Unknown,Shell Recharge/Ubitricity,"null, London, W9 2DU",51.524,-0.19418,Public - Pay At Location,1,4.8,4.8,Slow,No,No,Yes
136348,Shell Recharge Solutions (UK),Operational,Oakington Road,"Oakington Road, London, W9 2DH",51.525147,-0.194766,Public - Pay At Location,1,3.7,3.7,Slow,No,No,Yes
136345,Shell Recharge Solutions (UK),Operational,Oakington Road,"Oakington Road, London, W9 2DH",51.524858,-0.194246,Public - Pay At Location,1,3.7,3.7,Slow,No,No,Yes
254060,Shell Recharge Solutions (UK),Unknown,Shell Recharge/Ubitricity,"null, London, W9 2QW",51.524371,-0.192848,Public - Pay At Location,1,5.0,5.0,Slow,No,No,Yes
254083,Shell Recharge Solutions (UK),Unknown,junc. Marylands Road,"junc. Marylands Road, London, W9 2QN",51.525,-0.19223,Public - Pay At Location,1,4.8,4.8,Slow,No,No,Yes
254105,Shell Recharge Solutions (UK),Unknown,66 Marylands Road,"66 Marylands Road, London, W9 2DR",51.525365,-0.191767,Public - Pay At Location,1,3.7,3.7,Slow,No,No,Yes
254103,Shell Recharge Solutions (UK),Unknown,89 Shirland Road,"89 Shirland Road, London, W9 2EL",51.525336,-0.191203,Public - Pay At Location,1,3.7,3.7,Slow,No,No,Yes
254044,Shell Recharge Solutions (UK),Unknown,54C Sutherland Avenue,"54C Sutherland Avenue, London, W9 2QU",51.523969,-0.191893,Public - Pay At Location,1,3.7,3.7,Slow,No,No,Yes
254014,Shell Recharge Solutions (UK),Unknown,Shell Recharge/Ubitricity,"null, London, W9 2JL",51.523,-0.19297,Public - Pay At Location,1,4.8,4.8,Slow,No,No,Yes
136329,Shell Recharge Solutions (UK),Unknown,Sutherland Ave 38,"Sutherland Ave 38, London, W9 2HQ",51.523656,-0.192702,Public - Pay At Location,1,3.7,3.7,Slow,No,No,Yes
136327,Shell Recharge Solutions (UK),Unknown,Sutherland Ave 30,"Sutherland Ave 30, London, W9 2HE",51.523576,-0.193058,Public - Pay At Location,1,3.7,3.7,Slow,No,No,Yes
136324,Shell Recharge Solutions (UK),Unknown,Sutherland Ave 18A,"Sutherland Ave 18A, London, W9 2HQ",51.523338,-0.193529,Public - Pay At Location,1,3.7,3.7,Slow,No,No,Yes
253980,Shell Recharge Solutions (UK),Unknown,Woodchester Square,"Woodchester Square, London, W2 5SS",51.522029,-0.191636,Public - Pay At Location,1,3.7,3.7,Slow,No,No,Yes
253972,Shell Recharge Solutions (UK),Unknown,junc. Cirencester Street,"junc. Cirencester Street, London, W2 5SR",51.521642,-0.191739,Public - Pay At Location,1,4.8,4.8,Slow,No,No,Yes
253987,Shell Recharge Solutions (UK),Unknown,outside Princethorpe House,"outside Princethorpe House, London, W2 5SU",51.52221,-0.190986,Public - Pay At Location,1,5.0,5.0,Slow,No,No,Yes
173546,Shell Recharge Solutions (UK),Unknown,36 Senior Street,"36 Senior Street, London, W2 5TJ",51.521749,-0.190294,Public - Pay At Location,1,3.7,3.7,Slow,No,No,Yes
173544,Shell Recharge Solutions (UK),Unknown,18- 32 Senior Street,"18- 32 Senior Street, London, W2 5TJ",51.521293,-0.190723,Public - Pay At Location,1,3.7,3.7,Slow,No,No,Yes
254053,Shell Recharge Solutions (UK),Unknown,Shell Recharge/Ubitricity,"null, London, W9 2HG",51.524238,-0.190902,Public - Pay At Location,1,5.0,5.0,Slow,No,No,Yes
254059,Shell Recharge Solutions (UK),Unknown,82 Sutherland Avenue,"82 Sutherland Avenue, London, W9 2QS",51.524349,-0.190708,Public - Pay At Location,1,3.7,3.7,Slow,No,No,Yes
254098,Shell Recharge Solutions (UK),Unknown,81 Shirland Road,"81 Shirland Road, London, W9 2EH",51.525289,-0.190815,Public - Pay At Location,1,3.7,3.7,Slow,No,No,Yes
254082,Shell Recharge Solutions (UK),Unknown,65A Shirland Road,"65A Shirland Road, London, W9 2EL",51.524995,-0.190213,Public - Pay At Location,1,3.7,3.7,Slow,No,No,Yes
254213,Shell Recharge Solutions (UK),Unknown,159 Elgin Avenue,"159 Elgin Avenue, London, W9 1JH",51.527994,-0.190256,Public - Pay At Location,1,3.7,3.7,Slow,No,No,Yes
254150,Shell Recharge Solutions (UK),Unknown,170 Delaware Road,"170 Delaware Road, London, W9 2LW",51.526414,-0.191032,Public - Pay At Location,1,3.7,3.7,Slow,No,No,Yes
254115,Shell Recharge Solutions (UK),Unknown,80A Shirland Road,"80A Shirland Road, London, W9 2EQ",51.525564,-0.191639,Public - Pay At Location,1,3.7,3.7,Slow,No,No,Yes
254129,Shell Recharge Solutions (UK),Unknown,opp.,"opp., London, W9 2LW",51.526,-0.19135,Public - Pay At Location,1,4.8,4.8,Slow,No,No,Yes
254106,Shell Recharge Solutions (UK),Unknown,junc. Cirencester Street,"junc. Cirencester Street, London, W9 2DN",51.525372,-0.192702,Public - Pay At Location,1,4.8,4.8,Slow,No,No,Yes
254108,Shell Recharge Solutions (UK),Unknown,opp.,"opp., London, W9 2DN",51.525414,-0.192895,Public - Pay At Location,1,4.8,4.8,Slow,No,No,Yes
136362,Shell Recharge Solutions (UK),Operational,Shirland Road,"Shirland Road, London, W9 2EP",51.526674,-0.194001,Public - Pay At Location,1,3.7,3.7,Slow,No,No,Yes
254168,Shell Recharge Solutions (UK),Unknown,138A Elgin Avenue,"138A Elgin Avenue, London, W9 2NS",51.526834,-0.192674,Public - Pay At Location,1,3.7,3.7,Slow,No,No,Yes
254160,Shell Recharge Solutions (UK),Unknown,107 Elgin Avenue,"107 Elgin Avenue, London, W9 2NP",51.526755,-0.192852,Public - Pay At Location,1,3.7,3.7,Slow,No,No,Yes
254185,Shell Recharge Solutions (UK),Unknown,17 Widley Road,"17 Widley Road, London, W9 2LA",51.527414,-0.193357,Public - Pay At Location,1,3.7,3.7,Slow,No,No,Yes
254187,Shell Recharge Solutions (UK),Unknown,17 Widley Road,"17 Widley Road, London, W9 2LA",51.527455,-0.19379,Public - Pay At Location,1,3.7,3.7,Slow,No,No,Yes
254209,Shell Recharge Solutions (UK),Unknown,28 Wymering Road,"28 Wymering Road, London, W9 2NB",51.527903,-0.19267,Public - Pay At Location,1,3.7,3.7,Slow,No,No,Yes
254180,Shell Recharge Solutions (UK),Unknown,150 Elgin Avenue,"150 Elgin Avenue, London, W9 2NT",51.527121,-0.191905,Public - Pay At Location,1,3.7,3.7,Slow,No,No,Yes
254183,Shell Recharge Solutions (UK),Unknown,158 Elgin Avenue,"158 Elgin Avenue, London, W9 2NT",51.527259,-0.191763,Public - Pay At Location,1,3.7,3.7,Slow,No,No,Yes
254177,Shell Recharge Solutions (UK),Unknown,Shell Recharge/Ubitricity,"null, London, W9 2LW",51.527,-0.19168,Public - Pay At Location,1,4.8,4.8,Slow,No,No,Yes
254186,Shell Recharge Solutions (UK),Unknown,129 Elgin Avenue,"129 Elgin Avenue, London, W9 2NR",51.527449,-0.191541,Public - Pay At Location,1,3.7,3.7,Slow,No,No,Yes
173552,Shell Recharge Solutions (UK),Unknown,10 Morshead Road,"10 Morshead Road, London, W9 1LJ",51.528183,-0.191487,Public - Pay At Location,1,3.7,3.7,Slow,No,No,Yes
254248,Shell Recharge Solutions (UK),Unknown,50 Grantully Road,"50 Grantully Road, London, W9 1LH",51.52861,-0.191185,Public - Pay At Location,1,3.7,3.7,Slow,No,No,Yes
254266,Shell Recharge Solutions (UK),Unknown,82 Morshead Road,"82 Morshead Road, London, W9 1LG",51.529104,-0.192055,Public - Pay At Location,1,3.7,3.7,Slow,No,No,Yes
254252,Shell Recharge Solutions (UK),Unknown,54 Morshead Road,"54 Morshead Road, London, W9 1LF",51.52873,-0.192264,Public - Pay At Location,1,3.7,3.7,Slow,No,No,Yes
254247,Shell Recharge Solutions (UK),Unknown,54 Morshead Road,"54 Morshead Road, London, W9 1LF",51.528515,-0.192056,Public - Pay At Location,1,3.7,3.7,Slow,No,No,Yes
254238,Shell Recharge Solutions (UK),Unknown,207 Wymering Road,"207 Wymering Road, London, W9 2NH",51.528315,-0.193261,Public - Pay At Location,1,3.7,3.7,Slow,No,No,Yes
254231,Shell Recharge Solutions (UK),Unknown,4 Wymering Road,"4 Wymering Road, London, W9 2ND",51.528184,-0.193062,Public - Pay At Location,1,3.7,3.7,Slow,No,No,Yes
254249,Shell Recharge Solutions (UK),Unknown,209 Wymering Road,"209 Wymering Road, London, W9 2NH",51.528639,-0.193816,Public - Pay At Location,1,3.7,3.7,Slow,No,No,Yes
256254,Shell Recharge Solutions (UK),Operational,80 90 Essendine Road ,"80 90 Essendine Road , London, W9 2LY",51.529155,-0.193801,Public - Pay At Location,1,4.8,4.8,Slow,No,No,Yes
254268,Shell Recharge Solutions (UK),Unknown,3 Morshead Road,"3 Morshead Road, London, W9 1LG",51.529134,-0.193024,Public - Pay At Location,1,3.7,3.7,Slow,No,No,Yes
254262,Shell Recharge Solutions (UK),Unknown,82 Morshead Road,"82 Morshead Road, London, W9 1LG",51.529004,-0.192657,Public - Pay At Location,1,3.7,3.7,Slow,No,No,Yes
254257,Shell Recharge Solutions (UK),Unknown,31 Grantully Road,"31 Grantully Road, London, W9 1LQ",51.528898,-0.190376,Public - Pay At Location,1,3.7,3.7,Slow,No,No,Yes
254215,Shell Recharge Solutions (UK),Unknown,opp.,"opp., London, W9 1NQ",51.528,-0.19026,Public - Pay At Location,1,4.8,4.8,Slow,No,No,Yes
264678,Shell Recharge Solutions (UK),Unknown,Shell Recharge/Ubitricity,"null, London, W9 3HR",51.53,-0.1988,Public - Pay At Location,1,4.8,4.8,Slow,No,No,Yes
173553,Shell Recharge Solutions (UK),Unknown,51 Croxley Road,"51 Croxley Road, London, W9 3HJ",51.529302,-0.198983,Public - Pay At Location,1,3.7,3.7,Slow,No,No,Yes
173555,Shell Recharge Solutions (UK),Unknown,37 Macroom Road,"37 Macroom Road, London, W9 3HY",51.529549,-0.199394,Public - Pay At Location,1,3.7,3.7,Slow,No,No,Yes
254251,Shell Recharge Solutions (UK),Unknown,3 Fordingley Road,"3 Fordingley Road, London, W9 3HE",51.528707,-0.198708,Public - Pay At Location,1,3.7,3.7,Slow,No,No,Yes
254253,Shell Recharge Solutions (UK),Unknown,junc. Senior Street,"junc. Senior Street, London, W9 3HE",51.528752,-0.199087,Public - Pay At Location,1,4.8,4.8,Slow,No,No,Yes
254245,Shell Recharge Solutions (UK),Unknown,Saltram Cres 9,"Saltram Cres 9, London, W9 3HP",51.528464,-0.198271,Public - Membership Required,1,3.7,3.7,Slow,No,No,Yes
254270,Shell Recharge Solutions (UK),Unknown,Shell Recharge/Ubitricity,"null, London, NW6 5PU",51.529281,-0.197302,Public - Pay At Location,1,3.7,3.7,Slow,No,No,Yes
254263,Shell Recharge Solutions (UK),Unknown,Shell Recharge/Ubitricity,"null, London, NW6 5PT",51.529036,-0.197207,Public - Pay At Location,1,3.7,3.7,Slow,No,No,Yes
254279,Shell Recharge Solutions (UK),Unknown,Shell Recharge/Ubitricity,"null, London, NW6 5PU",51.529459,-0.197273,Public - Pay At Location,1,3.7,3.7,Slow,No,No,Yes
254296,Shell Recharge Solutions (UK),Unknown,Shell Recharge/Ubitricity,"null, London, NW6 5PU",51.529917,-0.197268,Public - Pay At Location,1,3.7,3.7,Slow,No,No,Yes
254226,Shell Recharge Solutions (UK),Unknown,Essendine Rd 17,"Essendine Rd 17, London, W9 2LY",51.528117,-0.194659,Public - Pay At Location,1,3.7,3.7,Slow,No,No,Yes
264670,Shell Recharge Solutions (UK),Unknown,Shell Recharge/Ubitricity,"null, London, NW6 5LG",51.528,-0.19586,Public - Pay At Location,1,4.8,4.8,Slow,No,No,Yes
53046,Total Energies (UK),Operational,195 Kilburn Park Road,"195 Kilburn Park Road, London, NW6 5LG",51.528873,-0.195525,Public - Membership Required,2,3.0,7.0,Fast,No,Yes,Yes
254164,Shell Recharge Solutions (UK),Unknown,1 Lanhill Road,"1 Lanhill Road, London, W9 2BP",51.526813,-0.196664,Public - Pay At Location,1,3.7,3.7,Slow,No,No,Yes
254162,Shell Recharge Solutions (UK),Unknown,16 Lanhill Road,"16 Lanhill Road, London, W9 2BP",51.526791,-0.196359,Public - Pay At Location,1,3.7,3.7,Slow,No,No,Yes
254182,Shell Recharge Solutions (UK),Unknown,148 Shirland Road,"148 Shirland Road, London, W9 2BT",51.527244,-0.195753,Public - Pay At Location,1,3.7,3.7,Slow,No,No,Yes
254195,Shell Recharge Solutions (UK),Unknown,Essendine Rd 3,"Essendine Rd 3, London, W9 2LS",51.52766,-0.195045,Public - Pay At Location,1,3.7,3.7,Slow,No,No,Yes
136370,Shell Recharge Solutions (UK),Operational,Shirland Road,"Shirland Road, London, W9 2BT",51.527023,-0.194962,Public - Pay At Location,1,3.7,3.7,Slow,No,No,Yes
136358,Shell Recharge Solutions (UK),Operational,Elgin Avenue,"Elgin Avenue, London, W9 2DA",51.526118,-0.194665,Public - Pay At Location,1,3.7,3.7,Slow,No,No,Yes
254128,Shell Recharge Solutions (UK),Unknown,Shell Recharge/Ubitricity,"null, London, W9 2DB",51.526,-0.19541,Public - Pay At Location,1,4.8,4.8,Slow,No,No,Yes
136351,Shell Recharge Solutions (UK),Operational,Oakington Road,"Oakington Road, London, W9 2HB",51.525435,-0.195281,Public - Pay At Location,1,3.7,3.7,Slow,No,No,Yes
136353,Shell Recharge Solutions (UK),Operational,Elgin Avenue,"Elgin Avenue, London, W9 2HB",51.525578,-0.195872,Public - Pay At Location,1,3.7,3.7,Slow,No,No,Yes
254127,Shell Recharge Solutions (UK),Unknown,opp.,"opp., London, W9 2DD",51.526,-0.19616,Public - Pay At Location,1,4.8,4.8,Slow,No,No,Yes
254141,Shell Recharge Solutions (UK),Unknown,25 Grittleton Road,"25 Grittleton Road, London, W9 2DD",51.526216,-0.196877,Public - Pay At Location,1,3.7,3.7,Slow,No,No,Yes
254138,Shell Recharge Solutions (UK),Unknown,10 Grittleton Road,"10 Grittleton Road, London, W9 2DD",51.526069,-0.196727,Public - Pay At Location,1,3.7,3.7,Slow,No,No,Yes
254135,Shell Recharge Solutions (UK),Unknown,9 Grittleton Road,"9 Grittleton Road, London, W9 2DD",51.526008,-0.196326,Public - Pay At Location,1,3.7,3.7,Slow,No,No,Yes
254109,Shell Recharge Solutions (UK),Unknown,60 Elgin Avenue,"60 Elgin Avenue, London, W9 2HA",51.525416,-0.196804,Public - Pay At Location,1,3.7,3.7,Slow,No,No,Yes
254107,Shell Recharge Solutions (UK),Unknown,52A Elgin Avenue,"52A Elgin Avenue, London, W9 2HA",51.525397,-0.197108,Public - Pay At Location,1,3.7,3.7,Slow,No,No,Yes
136356,Shell Recharge Solutions (UK),Operational,Warlock Road,"Warlock Road, London, W9 3LR",51.525953,-0.197997,Public - Membership Required,1,3.7,3.7,Slow,No,No,Yes
254167,Shell Recharge Solutions (UK),Unknown,77B Chippenham Road,"77B Chippenham Road, London, W9 2AB",51.526832,-0.197175,Public - Pay At Location,1,3.7,3.7,Slow,No,No,Yes
254169,Shell Recharge Solutions (UK),Unknown,Shell Recharge/Ubitricity,"null, London, W9 3PH",51.526844,-0.198552,Public - Pay At Location,1,5.0,5.0,Slow,No,No,Yes
136372,Shell Recharge Solutions (UK),Operational,Lydford Road,"Lydford Road, London, W9 3LU",51.527225,-0.199294,Public - Pay At Location,1,3.7,3.7,Slow,No,No,Yes
136365,Shell Recharge Solutions (UK),Operational,Warlock Road,"Warlock Road, London, W9 3LP",51.526736,-0.199743,Public - Pay At Location,1,3.7,3.7,Slow,No,No,Yes
136359,Shell Recharge Solutions (UK),Operational,Walterton Road,"Walterton Road, London, W9 3PJ",51.526213,-0.199411,Public - Pay At Location,1,3.7,3.7,Slow,No,No,Yes
136361,Shell Recharge Solutions (UK),Operational,Warlock Road,"Warlock Road, London, W9 3LR",51.526269,-0.198459,Public - Pay At Location,1,3.7,3.7,Slow,No,No,Yes
136354,Shell Recharge Solutions (UK),Unknown,Walterton Rd 36A,"Walterton Rd 36A, London, W9 3PL",51.525838,-0.199919,Public - Pay At Location,1,3.7,3.7,Slow,No,No,Yes
254383,Shell Recharge Solutions (UK),Unknown,Carlton Vale 45 O/S invergarry house,"Carlton Vale 45 O/S invergarry house, London, NW6 5ES",51.532361,-0.190462,Public - Membership Required,1,3.7,3.7,Slow,No,No,Yes
254396,Shell Recharge Solutions (UK),Unknown,o/s Renfrew House,"o/s Renfrew House, London, NW6 5ES",51.533,-0.19019,Public - Pay At Location,1,4.8,4.8,Slow,No,No,Yes
254444,Shell Recharge Solutions (UK),Unknown,5 Kilburn Park Road,"5 Kilburn Park Road, London, NW6 5UY",51.534596,-0.190603,Public - Pay At Location,1,3.7,3.7,Slow,No,No,Yes
136415,Shell Recharge Solutions (UK),Unknown,Randolph gardens (Torridon House),"Randolph gardens (Torridon House), London, NW6 5HP",51.5339,-0.190618,Public - Pay At Location,1,3.7,3.7,Slow,No,No,Yes
254416,Shell Recharge Solutions (UK),Unknown,opp St augustines school,"opp St augustines school, London, NW6 5XA",51.534,-0.1914,Public - Pay At Location,1,4.8,4.8,Slow,No,No,Yes
254453,Shell Recharge Solutions (UK),Unknown,opp.,"opp., London, NW6 5GA",51.535,-0.19222,Public - Pay At Location,1,4.8,4.8,Slow,No,No,Yes
173568,Total Energies (UK),Unknown,Cambridge Gardens,"Cambridge Gardens, Brent, NW6 5AE",51.533797,-0.193514,Public - Membership Required,2,3.0,7.0,Fast,No,Yes,Yes
264690,Shell Recharge Solutions (UK),Unknown,Shell Recharge/Ubitricity,"null, London, NW6 5LA",51.532,-0.19325,Public - Pay At Location,1,4.8,4.8,Slow,No,No,Yes
134673,Shell Recharge Solutions (UK),Unknown,LC 3,"Carlton Vale, London, NW6 5EP",51.532131,-0.191801,Public - Membership Required,1,3.7,3.7,Slow,No,No,Yes
254345,Shell Recharge Solutions (UK),Unknown,Shell Recharge/Ubitricity,"null, London, NW6 5LB",51.531,-0.19392,Public - Pay At Location,1,4.8,4.8,Slow,No,No,Yes
254355,Shell Recharge Solutions (UK),Unknown,83 Kilburn Park Road,"83 Kilburn Park Road, London, NW6 5LA",51.531251,-0.193497,Public - Pay At Location,1,3.7,3.7,Slow,No,No,Yes
286106,Shell Recharge Solutions (UK),Unknown,1 Stafford Road,"1 Stafford Road, London, NW6 5RS",51.531027,-0.195553,Public - Pay At Location,1,5.0,5.0,Slow,No,No,Yes
254412,Shell Recharge Solutions (UK),Unknown,Shell Recharge/Ubitricity,"null, London, NW6 5QS",51.533734,-0.195014,Public - Pay At Location,1,3.7,3.7,Slow,No,No,Yes
200542,Shell Recharge Solutions (UK),Unknown,Shell Recharge/Ubitricity,"null, London, NW6 5QX",51.533552,-0.19663,Public - Pay At Location,1,3.7,3.7,Slow,No,No,Yes
173557,Total Energies (UK),Unknown,Malvern Road,"Malvern Road, Brent, NW6 5PU",51.530825,-0.197871,Public - Membership Required,2,3.0,7.0,Fast,No,Yes,Yes
254351,Shell Recharge Solutions (UK),Unknown,Shell Recharge/Ubitricity,"null, London, NW6 5PU",51.531115,-0.198477,Public - Pay At Location,1,3.7,3.7,Slow,No,No,Yes
254359,Shell Recharge Solutions (UK),Unknown,outside of Perrin House,"outside of Perrin House, London, NW6 5QD",51.531327,-0.19871,Public - Pay At Location,1,3.7,3.7,Slow,No,No,Yes
254346,Shell Recharge Solutions (UK),Unknown,LC 12,"LC 12, London, W9 3HS",51.53102,-0.199867,Public - Membership Required,1,3.7,3.7,Slow,No,No,Yes
254348,Shell Recharge Solutions (UK),Unknown,LC 10,"LC 10, London, W9 3JT",51.531053,-0.199771,Public - Membership Required,1,3.7,3.7,Slow,No,No,Yes
254341,Shell Recharge Solutions (UK),Unknown,LC 11,"LC 11, London, W9 3HR",51.530922,-0.199736,Public - Membership Required,1,3.7,3.7,Slow,No,No,Yes
254318,Shell Recharge Solutions (UK),Unknown,Macroom Road 7,"Macroom Road 7, London, W9 3HY",51.530409,-0.199884,Public - Membership Required,1,3.7,3.7,Slow,No,No,Yes
254316,Shell Recharge Solutions (UK),Unknown,Macroom Road 1-6,"Macroom Road 1-6, London, W9 3HZ",51.530399,-0.199893,Public - Membership Required,1,3.7,3.7,Slow,No,No,Yes
254307,Shell Recharge Solutions (UK),Unknown,Macroom Road 16,"Macroom Road 16, London, W9 3HY",51.530124,-0.199566,Public - Membership Required,1,3.7,3.7,Slow,No,No,Yes
236769,Char.gy,Operational,94 Glengall Road,"94 Glengall Road, London, NW6 7ER",51.53927,-0.1998727,Public,1,5.1,5.1,Slow,No,No,Yes
286189,Shell Recharge Solutions (UK),Unknown,25 Hazelmere Road,"25 Hazelmere Road, London, NW6 7HB",51.53875,-0.199757,Public - Pay At Location,1,5.0,5.0,Slow,No,No,Yes
286170,Shell Recharge Solutions (UK),Unknown,2A Hazelmere Road,"2A Hazelmere Road, London, NW6 6PY",51.53727,-0.19824,Public - Pay At Location,1,4.8,4.8,Slow,No,No,Yes
173584,Total Energies (UK),Unknown,Algernon Road (Brent),"Algernon Road (Brent), Brent, NW6 6TU",51.538334,-0.197877,Public - Membership Required,2,3.0,7.0,Fast,No,Yes,Yes
286171,Shell Recharge Solutions (UK),Unknown,15 Brondesbury Villas,"15 Brondesbury Villas, London, NW6 6AZ",51.53729,-0.194471,Public - Pay At Location,1,5.0,5.0,Slow,No,No,Yes
286191,Shell Recharge Solutions (UK),Unknown,31 Victoria Road,"31 Victoria Road, London, NW6 6SX",51.539117,-0.197045,Public - Pay At Location,1,5.0,5.0,Slow,No,No,Yes
173351,Shell Recharge Solutions (UK),Unknown,30 Birchington Road,"30 Birchington Road, London, NW6 4LJ",51.539461,-0.193608,Public,1,3.7,3.7,Slow,No,No,Yes
136437,Shell Recharge Solutions (UK),Unknown,Priory Rd 9A,"Priory Rd 9A, London, NW6 4NN",51.539121,-0.190679,Public - Pay At Location,1,3.7,3.7,Slow,No,No,Yes
254548,Shell Recharge Solutions (UK),Unknown,Priory Rd 25,"Priory Rd 25, London, NW6 4NN",51.539804,-0.190399,Public - Pay At Location,1,3.7,3.7,Slow,No,No,Yes
254552,Shell Recharge Solutions (UK),Unknown,Priory Rd 28,"Priory Rd 28, London, NW6 4SJ",51.539969,-0.190312,Public - Pay At Location,1,3.7,3.7,Slow,No,No,Yes
254612,Shell Recharge Solutions (UK),Unknown,Netherwood St 235,"Netherwood St 235, London, NW6 2JR",51.545542,-0.19965,Public - Pay At Location,1,3.7,3.7,Slow,No,No,Yes
136467,Shell Recharge Solutions (UK),Unknown,Palmerston Rd 1,"Palmerston Rd 1, London, NW6 2JL",51.545062,-0.197608,Public - Pay At Location,1,3.7,3.7,Slow,No,No,Yes
254617,Shell Recharge Solutions (UK),Unknown,Netherwood St 91,"Netherwood St 91, London, NW6 2QR",51.545899,-0.196402,Public - Pay At Location,1,3.7,3.7,Slow,No,No,Yes
136469,Shell Recharge Solutions (UK),Unknown,Sherriff Rd 67,"Sherriff Rd 67, London, NW6 2AS",51.545892,-0.194929,Public - Pay At Location,1,3.7,3.7,Slow,No,No,Yes
173346,Shell Recharge Solutions (UK),Unknown,18 Kylemore Road,"18 Kylemore Road, London, NW6 2PT",51.545293,-0.19516,Public,1,3.7,3.7,Slow,No,No,Yes
173343,Shell Recharge Solutions (UK),Unknown,64 Dynham Road,"64 Dynham Road, London, NW6 2NT",51.544069,-0.195535,Public,1,3.7,3.7,Slow,No,No,Yes
268132,Total Energies (UK),Unknown,Hemstal Road,"49 Hemstal Road, Camden Town, NW6 2AD",51.544533,-0.195728,Public,1,22.0,22.0,Fast,No,Yes,No
268134,Total Energies (UK),Unknown,Lowfield Road,"47 Lowfield Road, Camden Town, NW6 2PP",51.54493,-0.196289,Public,1,22.0,22.0,Fast,No,Yes,No
173339,Shell Recharge Solutions (UK),Unknown,44 Gascony Avenue,"44 Gascony Avenue, London, NW6 4NB",51.542592,-0.196095,Public,1,3.7,3.7,Slow,No,No,Yes
173347,Shell Recharge Solutions (UK),Unknown,35 Cotleigh Road,"35 Cotleigh Road, London, NW6 2NN",51.543565,-0.194643,Public,1,3.7,3.7,Slow,No,No,Yes
268114,Total Energies (UK),Unknown,Mazenod Avenue,"40 Mazenod Avenue, Camden Town, NW6 4LR",51.541588,-0.194244,Public,1,22.0,22.0,Fast,No,Yes,No
254574,Shell Recharge Solutions (UK),Unknown,Shell Recharge/Ubitricity,"null, London, NW6 4NB",51.542057,-0.197406,Public - Pay At Location,1,4.8,4.8,Slow,No,No,Yes
200570,Shell Recharge Solutions (UK),Unknown,Shell Recharge/Ubitricity,"null, London, NW6 7LW",51.541984,-0.199909,Public - Pay At Location,1,3.7,3.7,Slow,No,No,Yes
286207,Shell Recharge Solutions (UK),Unknown,15 Aldershot Road,"15 Aldershot Road, London, NW6 7LD",51.540531,-0.1997,Public - Pay At Location,1,5.0,5.0,Slow,No,No,Yes
286210,Shell Recharge Solutions (UK),Unknown,4 Aldershot Road,"4 Aldershot Road, London, NW6 7LG",51.540783,-0.19992,Public - Pay At Location,1,4.8,4.8,Slow,No,No,Yes
286200,Shell Recharge Solutions (UK),Unknown,32 Aldershot Road,"32 Aldershot Road, London, NW6 7LG",51.540134,-0.19961,Public - Pay At Location,1,4.8,4.8,Slow,No,No,Yes
107298,Total Energies (UK),Operational,St Julian's Road,"6 St Julian's Road, London, NW6 7LA",51.5402350592,-0.1981335256,Public - Membership Required,2,4.0,7.0,Fast,No,Yes,Yes
268106,Total Energies (UK),Unknown,Mutrix Road,"48 Mutrix Road, Camden Town, NW6 4BF",51.54029,-0.193444,Public,1,22.0,22.0,Fast,No,Yes,No
13307,Total Energies (UK),Operational,"West End Lane, Camden","West End Lane, London, NW6 4SS",51.540812,-0.19178,Public - Membership Required,2,4.0,7.0,Fast,No,Yes,Yes
173358,Shell Recharge Solutions (UK),Unknown,14 Acol Road,"14 Acol Road, London, NW6 3AA",51.542009,-0.190546,Public,1,3.7,3.7,Slow,No,No,Yes
268115,Total Energies (UK),Unknown,Acol Road,"21 Acol Road, Camden Town, NW6 3AE",51.541897,-0.192155,Public,1,22.0,22.0,Fast,No,Yes,No
268124,Total Energies (UK),Unknown,Messina Avenue,"111 Messina Avenue, Camden Town, NW6 4LG",51.543102,-0.193347,Public,1,22.0,22.0,Fast,No,Yes,No
264744,Shell Recharge Solutions (UK),Unknown,Shell Recharge/Ubitricity,"null, London, NW6 3PN",51.543038,-0.191488,Public - Pay At Location,1,3.7,3.7,Slow,No,No,Yes
268140,Total Energies (UK),Unknown,Hilltop Road,"6 Hilltop Road, Camden Town, NW6 2PY",51.54539,-0.193098,Public,1,22.0,22.0,Fast,No,Yes,No
268142,Total Energies (UK),Unknown,Gladys Road,"30 Gladys Road, Camden Town, NW6 2PX",51.545555,-0.193755,Public,1,22.0,22.0,Fast,No,Yes,No
254619,Shell Recharge Solutions (UK),Unknown,Shell Recharge/Ubitricity,"null, London, NW6 2AS",51.546033,-0.192893,Public - Membership Required,1,3.7,3.7,Slow,No,No,Yes
136462,Shell Recharge Solutions (UK),Unknown,Cleve Rd 7-9,"Cleve Rd 7-9, London, NW6 3RN",51.544162,-0.190528,Public - Pay At Location,1,3.7,3.7,Slow,No,No,Yes
268148,Total Energies (UK),Unknown,Blackburn Road,"Blackburn Road, Camden Town, NW6 1RZ",51.547096,-0.190636,Public,1,22.0,22.0,Fast,No,Yes,No
268161,Total Energies (UK),Unknown,Sandwell Crescent,"10 Sandwell Crescent, Camden, NW6 1PB",51.54941,-0.191944,Public,1,22.0,22.0,Fast,No,Yes,No
268166,Total Energies (UK),Unknown,Kingdon Road,"2 Kingdon Road, Camden, NW6 1QU",51.54971,-0.19271,Public,1,22.0,22.0,Fast,No,Yes,No
268165,Total Energies (UK),Unknown,Dennington Park Road,"23 Dennington Park Road, Camden Town, NW6 1BB",51.549625,-0.194084,Public,1,22.0,22.0,Fast,No,Yes,No
268158,Total Energies (UK),Unknown,Sumatra Road,"167 Sumatra Road, Camden Town, NW6 1PE",51.548946,-0.193895,Public,1,22.0,22.0,Fast,No,Yes,No
268153,Total Energies (UK),Unknown,Iverson Road,"171 Iverson Road, Camden Town, NW6 2RB",51.547993,-0.192649,Public,1,22.0,22.0,Fast,No,Yes,No
136475,Shell Recharge Solutions (UK),Unknown,Maygrove Rd 152A,"Maygrove Rd 152A, London, NW6 2EP",51.547887,-0.196647,Public - Pay At Location,1,3.7,3.7,Slow,No,No,Yes
254634,Shell Recharge Solutions (UK),Unknown,Shell Recharge/Ubitricity,"null, London, NW6 2HH",51.547191,-0.196261,Public - Pay At Location,1,4.8,4.8,Slow,No,No,Yes
173337,Shell Recharge Solutions (UK),Unknown,95 Iverson Road,"95 Iverson Road, London, NW6 2QY",51.547095,-0.197222,Public,1,3.7,3.7,Slow,No,No,Yes
254630,Shell Recharge Solutions (UK),Unknown,Shell Recharge/Ubitricity,"null, London, NW6 2QX",51.546789,-0.198897,Public - Pay At Location,1,4.8,4.8,Slow,No,No,Yes
268151,Total Energies (UK),Unknown,Ariel Road,"29 Ariel Road, Camden Town, NW6 2EA",51.54785,-0.198149,Public,1,22.0,22.0,Fast,No,Yes,No
173338,Shell Recharge Solutions (UK),Unknown,115 Sumatra Road,"115 Sumatra Road, London, NW6 1PR",51.549263,-0.196241,Public,1,3.7,3.7,Slow,No,No,Yes
173344,Shell Recharge Solutions (UK),Unknown,33 Pandora Road,"33 Pandora Road, London, NW6 1PP",51.549583,-0.195466,Public,1,3.7,3.7,Slow,No,No,Yes
136104,Shell Recharge Solutions (UK),Unknown,Drayton Gardens,"Drayton Gardens, London, SW10 9RY",51.489823,-0.18223,Public - Pay At Location,1,3.7,3.7,Slow,No,No,Yes
252530,Shell Recharge Solutions (UK),Unknown,outside no. 8,"outside no. 8, London, SW10 9TB",51.489298,-0.183608,Public - Pay At Location,1,3.7,3.7,Slow,No,No,Yes
252552,Shell Recharge Solutions (UK),Unknown,4,"4, London, SW10 9TB",51.48965,-0.184293,Public - Pay At Location,1,3.7,3.7,Slow,No,No,Yes
187693,Shell Recharge Solutions (UK),Unknown,20 The Boltons,"20 The Boltons, London, SW10 9SU",51.489103,-0.18488,Public - Pay At Location,1,3.7,3.7,Slow,No,No,Yes
187692,Shell Recharge Solutions (UK),Unknown,9 Redcliffe Square,"9 Redcliffe Square, London, SW10 9LA",51.488146,-0.187483,Public - Pay At Location,1,3.7,3.7,Slow,No,No,Yes
252434,Shell Recharge Solutions (UK),Unknown,20 Tregunter Road,"20 Tregunter Road, London, SW10 9LH",51.487282,-0.185195,Public - Pay At Location,1,3.7,3.7,Slow,No,No,Yes
121439,Total Energies (UK),Operational,Hollywood Road,"36 Hollywood Road, London, SW10 9LG",51.486797,-0.185549,Public - Membership Required,3,4.0,22.0,Fast,No,Yes,Yes
252316,Shell Recharge Solutions (UK),Unknown,Cathcart Rd 55,"Cathcart Rd 55, London, SW10 9DH",51.485229,-0.186826,Public - Pay At Location,1,3.7,3.7,Slow,No,No,Yes
252290,Shell Recharge Solutions (UK),Unknown,90 Cathcart Road,"90 Cathcart Road, London, SW10 9DE",51.484824,-0.187457,Public - Pay At Location,1,3.7,3.7,Slow,No,No,Yes
136020,Shell Recharge Solutions (UK),Unknown,Redcliffe Pl 12,"Redcliffe Pl 12, London, SW10 9DD",51.484162,-0.185595,Public - Pay At Location,1,3.7,3.7,Slow,No,No,Yes
252292,Shell Recharge Solutions (UK),Unknown,outside flank wall no. 24 Redcliffe Gardens,"outside flank wall no. 24 Redcliffe Gardens, London, SW10 9EZ",51.484897,-0.185658,Public - Pay At Location,1,3.7,3.7,Slow,No,No,Yes
252323,Shell Recharge Solutions (UK),Unknown,outside no. 32,"outside no. 32, London, SW10 9HA",51.485305,-0.185928,Public - Pay At Location,1,3.7,3.7,Slow,No,No,Yes
252259,Shell Recharge Solutions (UK),Unknown,1 Netherton Grove,"1 Netherton Grove, London, SW10 9TQ",51.484203,-0.182801,Public - Pay At Location,1,3.7,3.7,Slow,No,No,Yes
136049,Shell Recharge Solutions (UK),Unknown,Redcliffe Rd 47A,"Redcliffe Rd 47A, Chelsea, SW10 9NJ",51.486632,-0.18256,Public - Membership Required,1,3.7,3.7,Slow,No,No,Yes
252369,Shell Recharge Solutions (UK),Unknown,0,"0, London, SW10 9HX",51.48618,-0.184434,Public - Pay At Location,1,3.7,3.7,Slow,No,No,Yes
252484,Shell Recharge Solutions (UK),Operational,28 The Boltons opp. ,"28 The Boltons opp. , London, SW10 9SU",51.488467,-0.183583,Public - Membership Required,1,3.7,3.7,Slow,No,No,Yes
256250,Shell Recharge Solutions (UK),Operational,28 The Boltons opp.,"28 The Boltons opp., London, SW10 9SU",51.488467,-0.183583,Public - Membership Required,1,3.7,3.7,Slow,No,No,Yes
252453,Shell Recharge Solutions (UK),Unknown,6 Harley Gardens,"6 Harley Gardens, London, SW10 9SW",51.48774,-0.181499,Public - Pay At Location,1,3.7,3.7,Slow,No,No,Yes
252423,Shell Recharge Solutions (UK),Unknown,outside no. 17,"outside no. 17, London, SW10 9SJ",51.487015,-0.181429,Public - Pay At Location,1,3.7,3.7,Slow,No,No,Yes
136047,Shell Recharge Solutions (UK),Unknown,5/6 Redcliffe Rd,"5/6 Redcliffe Rd, London, SW10 9NR",51.486291,-0.181728,Public - Membership Required,1,3.7,3.7,Slow,No,No,Yes
252201,Shell Recharge Solutions (UK),Unknown,2 Shalcomb Steet,"2 Shalcomb Steet, London, SW10 0HY",51.48284,-0.180086,Public - Pay At Location,1,3.7,3.7,Slow,No,No,Yes
252193,Shell Recharge Solutions (UK),Unknown,60 Lamont Road,"60 Lamont Road, London, SW10 0HX",51.482545,-0.180486,Public - Pay At Location,1,3.7,3.7,Slow,No,No,Yes
285756,Shell Recharge Solutions (UK),Unknown,15 Tetcott Road,"15 Tetcott Road, London, SW10 0SA",51.480023,-0.184729,Public - Pay At Location,1,5.0,5.0,Slow,No,No,Yes
200382,Shell Recharge Solutions (UK),Unknown,outside flank wall of no. 13 Tadema Road,"outside flank wall of no. 13 Tadema Road, London, SW10 0NX",51.480187,-0.182647,Public - Pay At Location,1,3.7,3.7,Slow,No,No,Yes
252176,Shell Recharge Solutions (UK),Unknown,31 Fernshaw Road,"31 Fernshaw Road, London, SW10 0TN",51.481931,-0.183107,Public - Pay At Location,1,3.7,3.7,Slow,No,No,Yes
252179,Shell Recharge Solutions (UK),Unknown,45D Edith Terrace,"45D Edith Terrace, London, SW10 0TL",51.482058,-0.183673,Public - Pay At Location,1,3.7,3.7,Slow,No,No,Yes
167403,Total Energies (UK),Unknown,Hortensia Road,"Hortensia Road, K&C, SW10 0QS",51.481996,-0.18561,Public - Membership Required,3,3.0,22.0,Fast,No,Yes,Yes
252138,SureCharge (FM Conway) (UK),Unknown,Moore Park Road,"Moore Park Road, Hammersmith, SW6 2JB",51.48007,-0.18943,Public - Membership Required,1,4.8,4.8,Slow,No,No,Yes
136025,Shell Recharge Solutions (UK),Unknown,Ifield Rd 82,"Ifield Rd 82, London, SW10 9AD",51.484783,-0.188213,Public - Pay At Location,1,3.7,3.7,Slow,No,No,Yes
252466,Shell Recharge Solutions (UK),Unknown,44A Redcliffe Square,"44A Redcliffe Square, London, SW10 9HQ",51.488062,-0.189481,Public - Pay At Location,1,3.7,3.7,Slow,No,No,Yes
187689,Shell Recharge Solutions (UK),Unknown,45 Westgate Terrace,"45 Westgate Terrace, London, SW10 9HF",51.487113,-0.189409,Public - Pay At Location,1,3.7,3.7,Slow,No,No,Yes
252368,Shell Recharge Solutions (UK),Unknown,16  Redcliffe Street,"16  Redcliffe Street, London, SW10 9DT",51.486173,-0.188547,Public - Pay At Location,1,3.7,3.7,Slow,No,No,Yes
252487,Shell Recharge Solutions (UK),Unknown,26 Redcliffe Square,"26 Redcliffe Square, London, SW10 9JY",51.488524,-0.188456,Public - Pay At Location,1,3.7,3.7,Slow,No,No,Yes
136102,Shell Recharge Solutions (UK),Unknown,Old Brompton Road,"Old Brompton Road, London, SW5 0DA",51.489668,-0.18913,Public - Membership Required,1,3.7,3.7,Slow,No,No,Yes
136100,Shell Recharge Solutions (UK),Unknown,Old Brompton Rd 226,"Old Brompton Rd 226, London, SW5 0DA",51.489572,-0.189545,Public - Membership Required,1,3.7,3.7,Slow,No,No,Yes
253089,Shell Recharge Solutions (UK),Unknown,outside no. 2,"outside no. 2, London, W8 5RG",51.49925,-0.18648,Public - Pay At Location,1,3.7,3.7,Slow,No,No,Yes
253100,Shell Recharge Solutions (UK),Unknown,outside no. 40,"outside no. 40, London, W8 5RG",51.499344,-0.186031,Public - Pay At Location,1,3.7,3.7,Slow,No,No,Yes
253142,Shell Recharge Solutions (UK),Unknown,39 De Vere Gardens,"39 De Vere Gardens, London, W8 5AW",51.499996,-0.184971,Public - Pay At Location,1,3.7,3.7,Slow,No,No,Yes
253129,Shell Recharge Solutions (UK),Unknown,43 De Vere Gardens,"43 De Vere Gardens, London, W8 5AW",51.499848,-0.184821,Public - Pay At Location,1,3.7,3.7,Slow,No,No,Yes
252981,Shell Recharge Solutions (UK),Unknown,16 Elvaston Place,"16 Elvaston Place, London, SW7 5QF",51.497868,-0.181496,Public - Pay At Location,1,3.7,3.7,Slow,No,No,Yes
252928,Shell Recharge Solutions (UK),Unknown,20 Queen's Gate Gardens,"20 Queen's Gate Gardens, London, SW7 5LZ",51.496903,-0.181871,Public - Pay At Location,1,3.7,3.7,Slow,No,No,Yes
252929,Shell Recharge Solutions (UK),Unknown,5-6 Queen's Gate Place,"5-6 Queen's Gate Place, London, SW7 5NU",51.496923,-0.180891,Public - Pay At Location,1,3.7,3.7,Slow,No,No,Yes
252989,Shell Recharge Solutions (UK),Unknown,23A Elvaston Place,"23A Elvaston Place, London, SW7 5NL",51.497974,-0.180111,Public - Pay At Location,1,3.7,3.7,Slow,No,No,Yes
253018,Shell Recharge Solutions (UK),Unknown,outside party wall of nos. 24 & 26,"outside party wall of nos. 24 & 26, London, SW7 5PH",51.49827,-0.1803,Public - Pay At Location,1,3.7,3.7,Slow,No,No,Yes
285919,Total Energies (UK),Unknown,Queens Gate Terrace,"2 Queens Gate Terrace, Kensington and Chelsea, SW7 5PN",51.49893,-0.180067,Public,1,22.0,22.0,Fast,No,Yes,No
285896,Shell Recharge Solutions (UK),Unknown,52 Stanhope Gardens,"52 Stanhope Gardens, London, SW7 5RF",51.494267,-0.181356,Public - Pay At Location,1,5.0,5.0,Slow,No,No,Yes
167418,Total Energies (UK),Unknown,Ashburn Place,"Ashburn Place, K&C, SW7 4LR",51.493909,-0.184331,Public - Membership Required,3,3.0,22.0,Fast,No,Yes,Yes
252847,Shell Recharge Solutions (UK),Unknown,16 Grenville Place,"16 Grenville Place, London, SW7 4RW",51.495585,-0.184925,Public - Pay At Location,1,3.7,3.7,Slow,No,No,Yes
252866,Shell Recharge Solutions (UK),Unknown,14 Southwell Gardens,"14 Southwell Gardens, London, SW7 4RL",51.495827,-0.184584,Public - Pay At Location,1,3.7,3.7,Slow,No,No,Yes
268036,Total Energies (UK),Unknown,Gloucester Road,"108 Gloucester Road, Kensington and Chelsea, SW7 4RH",51.49606,-0.18315,Public,1,22.0,22.0,Fast,No,Yes,No
253053,Shell Recharge Solutions (UK),Unknown,34 Queen's Gate Terrace,"34 Queen's Gate Terrace, London, SW7 5PH",51.49875,-0.182342,Public - Pay At Location,1,3.7,3.7,Slow,No,No,Yes
136196,Shell Recharge Solutions (UK),Unknown,Queen's Gate Terrace 50,"Queen's Gate Terrace 50, London, SW7 5PJ",51.498582,-0.183018,Public - Pay At Location,1,3.7,3.7,Slow,No,No,Yes
285914,Shell Recharge Solutions (UK),Unknown,32 Launceston Place,"32 Launceston Place, London, W8 5RN",51.498402,-0.184985,Public - Pay At Location,1,5.0,5.0,Slow,No,No,Yes
136186,Shell Recharge Solutions (UK),Unknown,Gloucester Road,"Gloucester Road, London, SW7 4QW",51.49735,-0.183712,Public - Membership Required,1,3.7,3.7,Slow,No,No,Yes
252968,Shell Recharge Solutions (UK),Unknown,75 Victoria Road,"75 Victoria Road, London, W8 5RH",51.497654,-0.185916,Public - Pay At Location,1,3.7,3.7,Slow,No,No,Yes
268041,Total Energies (UK),Unknown,Launceston Place,"4 Launceston Place, Kensington and Chelsea, W8 5RN",51.498894,-0.185025,Public,1,22.0,22.0,Fast,No,Yes,No
136175,Shell Recharge Solutions (UK),Unknown,Cornwall Gardens,"Cornwall Gardens, London, SW7 4AE",51.496822,-0.187477,Public - Pay At Location,1,3.7,3.7,Slow,No,No,Yes
268038,Total Energies (UK),Unknown,Grenville Place,"18 Grenville Place, Kensington and Chelsea, SW7 4SA",51.496284,-0.184999,Public,1,22.0,22.0,Fast,No,Yes,No
252863,Shell Recharge Solutions (UK),Unknown,opposite no. 24,"opposite no. 24, London, SW7 4HH",51.495781,-0.185947,Public - Pay At Location,1,3.7,3.7,Slow,No,No,Yes
252762,Shell Recharge Solutions (UK),Unknown,58,"58, Earl's Court, SW5 0NF",51.493686,-0.186836,Public - Pay At Location,1,3.7,3.7,Slow,No,No,Yes
252728,Shell Recharge Solutions (UK),Unknown,32 Collingham Road,"32 Collingham Road, London, SW5 0LS",51.492699,-0.187478,Public - Pay At Location,1,3.7,3.7,Slow,No,No,Yes
252699,Shell Recharge Solutions (UK),Unknown,26 Collingham Gardens,"26 Collingham Gardens, London, SW5 0HN",51.49206,-0.187847,Public - Pay At Location,1,3.7,3.7,Slow,No,No,Yes
136137,Shell Recharge Solutions (UK),Unknown,Collingham Gardens 7,"Collingham Gardens 7, London, SW5 0HW",51.492041,-0.187039,Public - Pay At Location,1,3.7,3.7,Slow,No,No,Yes
252675,Shell Recharge Solutions (UK),Unknown,Wetherby Gardens 7,"Wetherby Gardens 7, London, SW5 0JN",51.491631,-0.185492,Public - Pay At Location,1,3.7,3.7,Slow,No,No,Yes
252684,Shell Recharge Solutions (UK),Unknown,Wetherby Gardens 10A,"Wetherby Gardens 10A, London, SW5 0JW",51.491823,-0.184985,Public - Pay At Location,1,3.7,3.7,Slow,No,No,Yes
252723,Shell Recharge Solutions (UK),Unknown,Wetherby Pl 1,"Wetherby Pl 1, London, SW7 4NU",51.492607,-0.182515,Public - Pay At Location,1,3.7,3.7,Slow,No,No,Yes
252743,Shell Recharge Solutions (UK),Unknown,13 Harrington Gardens,"13 Harrington Gardens, London, SW7 4LT",51.493152,-0.183387,Public - Pay At Location,1,3.7,3.7,Slow,No,No,Yes
252707,Shell Recharge Solutions (UK),Unknown,37 Rosary Gardens,"37 Rosary Gardens, London, SW7 4NQ",51.492172,-0.182877,Public - Pay At Location,1,3.7,3.7,Slow,No,No,Yes
252665,Shell Recharge Solutions (UK),Unknown,5 Rosary Gardens,"5 Rosary Gardens, London, SW7 4NN",51.491348,-0.182152,Public - Pay At Location,1,3.7,3.7,Slow,No,No,Yes
121405,Total Energies (UK),Operational,Bina Gardens,"11 Bina Gardens, London, SW5 0JR",51.492077,-0.183899,Public - Membership Required,3,4.0,22.0,Fast,No,Yes,Yes
252615,Shell Recharge Solutions (UK),Unknown,outside no. 3,"outside no. 3, London, SW5 0BJ",51.490527,-0.184069,Public - Pay At Location,1,3.7,3.7,Slow,No,No,Yes
252597,Shell Recharge Solutions (UK),Unknown,outside no. 9,"outside no. 9, London, SW5 0BJ",51.490239,-0.183748,Public - Pay At Location,1,3.7,3.7,Slow,No,No,Yes
268031,Total Energies (UK),Unknown,Old Brompton Road,"Old Brompton Road junction with Bolton Gardens, Kensington and Chelsea, SW5 0DG",51.490368,-0.186646,Public,1,7.0,7.0,Fast,No,Yes,No
285823,Shell Recharge Solutions (UK),Unknown,198 Old Brompton road,"198 Old Brompton road, London, SW5 0BT",51.490213,-0.187451,Public - Pay At Location,1,5.0,5.0,Slow,No,No,Yes
136119,Shell Recharge Solutions (UK),Unknown,Roland Way,"Roland Way, London, SW7 3PH",51.490763,-0.180902,Public - Membership Required,1,3.7,3.7,Slow,No,No,Yes
252705,Shell Recharge Solutions (UK),Unknown,outside no. 15,"outside no. 15, London, SW7 4TS",51.492156,-0.181648,Public - Pay At Location,1,3.7,3.7,Slow,No,No,Yes
136146,Shell Recharge Solutions (UK),Unknown,Stanhope Gardens 37,"Stanhope Gardens 37, London, SW7 5QY",51.493498,-0.180881,Public - Pay At Location,1,3.7,3.7,Slow,No,No,Yes
136148,Shell Recharge Solutions (UK),Unknown,Stanhope Gardens 29,"Stanhope Gardens 29, London, SW7 5QX",51.493641,-0.180095,Public - Pay At Location,1,3.7,3.7,Slow,No,No,Yes
136114,Shell Recharge Solutions (UK),Unknown,Bolton Gardens 36,"Bolton Gardens 36, London, SW5 0JJ",51.490462,-0.189259,Public - Pay At Location,1,3.7,3.7,Slow,No,No,Yes
136132,Shell Recharge Solutions (UK),Unknown,opposite 32 Bramham Gardens/Bolton Gardens,"opposite 32 Bramham Gardens/Bolton Gardens, London, SW5 0AQ",51.491491,-0.188948,Public - Pay At Location,1,3.7,3.7,Slow,No,No,Yes
252725,Shell Recharge Solutions (UK),Unknown,opposite no. 16,"opposite no. 16, London, SW5 0NU",51.492635,-0.189361,Public - Pay At Location,1,3.7,3.7,Slow,No,No,Yes
252873,Shell Recharge Solutions (UK),Unknown,outside no. 27,"outside no. 27, London, W8 5JJ",51.49595,-0.18978,Public - Pay At Location,1,3.7,3.7,Slow,No,No,Yes
252767,Shell Recharge Solutions (UK),Unknown,Collingham Pl 25,"Collingham Pl 25, London, SW5 0QF",51.493849,-0.189657,Public - Pay At Location,1,3.7,3.7,Slow,No,No,Yes
252775,Shell Recharge Solutions (UK),Unknown,Collingham Pl 21,"Collingham Pl 21, London, SW5 0QF",51.493965,-0.189461,Public - Pay At Location,1,3.7,3.7,Slow,No,No,Yes
56972,POD Point (UK),Operational,Sainsbury's Cromwell Road,"158a Cromwell Road, London, SW7 4EJ",51.495067,-0.188246,Public - Membership Required,1,7.0,7.0,Fast,No,Yes,No
252939,Total Energies (UK),Unknown,Cornwall Gardens,"Cornwall Gardens, K&C, W8 5PY",51.497197,-0.188205,Public - Membership Required,2,3.0,7.0,Fast,No,Yes,Yes
253005,Shell Recharge Solutions (UK),Unknown,outside party wall of nos. 1 & 2,"outside party wall of nos. 1 & 2, London, W8 5QD",51.498152,-0.188909,Public - Pay At Location,1,3.7,3.7,Slow,No,No,Yes
136182,Shell Recharge Solutions (UK),Unknown,outside Cottesmore Court,"outside Cottesmore Court, London, W8 5PZ",51.49848,-0.1883,Public - Pay At Location,1,3.7,3.7,Slow,No,No,Yes
253116,Shell Recharge Solutions (UK),Unknown,outside no. 19,"outside no. 19, London, W8 5BY",51.499726,-0.188938,Public - Pay At Location,1,3.7,3.7,Slow,No,No,Yes
253139,Shell Recharge Solutions (UK),Unknown,outside no. 24,"outside no. 24, London, W8 5BY",51.499967,-0.189077,Public - Pay At Location,1,3.7,3.7,Slow,No,No,Yes
68524,Total Energies (UK),Operational,De Vere Gardens,"De Vere Gardens, London, W8 5AN",51.5017265656,-0.185114829944,Public - Membership Required,2,4.0,7.0,Fast,No,Yes,Yes
253239,Shell Recharge Solutions (UK),Unknown,Shell Recharge/Ubitricity,"null, London, W8 5DG",51.501619,-0.187541,Public - Pay At Location,1,5.0,5.0,Slow,No,No,Yes
253210,Shell Recharge Solutions (UK),Unknown,Shell Recharge/Ubitricity,"null, London, W8 5AL",51.500941,-0.185044,Public - Pay At Location,1,3.7,3.7,Slow,No,No,Yes
253217,Shell Recharge Solutions (UK),Unknown,9 De Vere Gardens,"9 De Vere Gardens, London, W8 5AL",51.501067,-0.184906,Public - Pay At Location,1,3.7,3.7,Slow,No,No,Yes
253241,ESB Energy (UK),Unknown,"Kensington Road,Kensington","Kensington Road, Kensington, Westminster, SW7 5DP",51.5017,-0.18363,Public - Pay At Location,2,50.0,50.0,Rapid,Yes,No,No
253183,Shell Recharge Solutions (UK),Unknown,Palace Gate 6,"Palace Gate 6, London, W8 5LS",51.500413,-0.183956,Public - Pay At Location,1,3.7,3.7,Slow,No,No,Yes
253157,Shell Recharge Solutions (UK),Unknown,Palace Gate 29,"Palace Gate 29, London, W8 5LY",51.500142,-0.183948,Public - Pay At Location,1,3.7,3.7,Slow,No,No,Yes
253198,Shell Recharge Solutions (UK),Unknown,32 Hyde Park Gate,"32 Hyde Park Gate, London, SW7 5DN",51.500707,-0.181517,Public - Pay At Location,1,3.7,3.7,Slow,No,No,Yes
253180,Shell Recharge Solutions (UK),Unknown,outside 23,"outside 23, London, W8 5ET",51.500399,-0.188624,Public - Pay At Location,1,3.7,3.7,Slow,No,No,Yes
253194,Shell Recharge Solutions (UK),Unknown,outside no. 31,"outside no. 31, London, W8 5BH",51.500659,-0.188161,Public - Pay At Location,1,3.7,3.7,Slow,No,No,Yes
253238,Shell Recharge Solutions (UK),Unknown,35 Kensington Court,"35 Kensington Court, London, W8 5BD",51.501608,-0.188486,Public - Pay At Location,1,3.7,3.7,Slow,No,No,Yes
5787,POD Point (UK),Operational,Young street NCP Car Park,"19-27 Young Street, Kensington, W8 5EH",51.5016873,-0.1895541,Public - Membership Required,1,7.0,7.0,Fast,No,Yes,No
253245,Shell Recharge Solutions (UK),Unknown,48 Kensington Court,"48 Kensington Court, London, W8 5DB",51.501779,-0.188443,Public - Pay At Location,1,3.7,3.7,Slow,No,No,Yes
253674,Shell Recharge Solutions (UK),Unknown,Shell Recharge/Ubitricity,"null, London, W2 3DN",51.514136,-0.180358,Public - Pay At Location,1,5.0,5.0,Slow,No,No,Yes
253678,Shell Recharge Solutions (UK),Unknown,12 Devonshire Terrace,"12 Devonshire Terrace, London, W2 3DN",51.514318,-0.18071,Public - Pay At Location,1,3.7,3.7,Slow,No,No,Yes
253680,Shell Recharge Solutions (UK),Unknown,20 Devonshire Terrace,"20 Devonshire Terrace, London, W2 3DW",51.514361,-0.180733,Public - Pay At Location,1,3.7,3.7,Slow,No,No,Yes
253687,Shell Recharge Solutions (UK),Unknown,21 Devonshire Terrace,"21 Devonshire Terrace, London, W2 3DW",51.514458,-0.180859,Public - Pay At Location,1,3.7,3.7,Slow,No,No,Yes
253670,Shell Recharge Solutions (UK),Unknown,Shell Recharge/Ubitricity,"null, London, W2 6DB",51.514,-0.18179,Public - Pay At Location,1,5.0,5.0,Slow,No,No,Yes
253631,Shell Recharge Solutions (UK),Unknown,Craven Hill Gardens 40,"Craven Hill Gardens 40, London, W2 3EA",51.513131,-0.181622,Public - Pay At Location,1,3.7,3.7,Slow,No,No,Yes
136267,Shell Recharge Solutions (UK),Unknown,Craven Hill 18,"Craven Hill 18, London, W2 3DS",51.513035,-0.180709,Public - Pay At Location,1,3.7,3.7,Slow,No,No,Yes
253616,Shell Recharge Solutions (UK),Unknown,Craven Hill 35,"Craven Hill 35, London, W2 3ER",51.512884,-0.181754,Public - Pay At Location,1,3.7,3.7,Slow,No,No,Yes
253553,ESB Energy (UK),Unknown,"Lancaster Gate (Spire House), Bayswater","Lancaster Gate (Spire House), Bayswater, Westminster, W2 3NA",51.511611,-0.180296,Public - Pay At Location,2,50.0,50.0,Rapid,Yes,No,No
253569,Shell Recharge Solutions (UK),Unknown,opp.,"opp., London, W2 3EN",51.512,-0.18294,Public - Pay At Location,1,5.0,5.0,Slow,No,No,Yes
253564,Shell Recharge Solutions (UK),Unknown,Shell Recharge/Ubitricity,"null, London, W2 3ES",51.511881,-0.182981,Public - Pay At Location,1,5.0,5.0,Slow,No,No,Yes
253587,Shell Recharge Solutions (UK),Unknown,22 Leinster Gardens,"22 Leinster Gardens, London, W2 3EQ",51.51232,-0.183018,Public - Pay At Location,1,3.7,3.7,Slow,No,No,Yes
253650,Shell Recharge Solutions (UK),Unknown,Shell Recharge/Ubitricity,"null, London, W2 3AA",51.513561,-0.182155,Public - Pay At Location,1,5.0,5.0,Slow,No,No,Yes
253673,Shell Recharge Solutions (UK),Unknown,Shell Recharge/Ubitricity,"null, London, W2 6DD",51.514105,-0.182822,Public - Pay At Location,1,5.0,5.0,Slow,No,No,Yes
253694,Shell Recharge Solutions (UK),Unknown,Shell Recharge/Ubitricity,"null, London, W2 6DD",51.514677,-0.183209,Public - Pay At Location,1,5.0,5.0,Slow,No,No,Yes
253641,BP Pulse (UK),Unknown,40 Porchester Terrace,"Bayswater, London, W2 3TP",51.513359,-0.184802,Public - Membership Required,2,3.7,22.0,Fast,No,Yes,Yes
47914,BP Pulse (UK),Operational,Leinster Gardens,"Leinster Gardens, London, W2 3AN",51.513484,-0.183624,Public - Membership Required,2,3.0,7.0,Fast,No,Yes,Yes
253602,Shell Recharge Solutions (UK),Unknown,53 Inverness Terrace,"53 Inverness Terrace, London, W2 3JN",51.512555,-0.186418,Public - Pay At Location,1,3.7,3.7,Slow,No,No,Yes
253629,Shell Recharge Solutions (UK),Unknown,13 Queensborough Terrace,"13 Queensborough Terrace, London, W2 3TB",51.513103,-0.185729,Public - Pay At Location,1,3.7,3.7,Slow,No,No,Yes
253619,Shell Recharge Solutions (UK),Unknown,17 Queensborough Terrace,"17 Queensborough Terrace, London, W2 3SS",51.512909,-0.18558,Public - Pay At Location,1,3.7,3.7,Slow,No,No,Yes
136278,Shell Recharge Solutions (UK),Unknown,Inverness Terrace 1,"Inverness Terrace 1, London, W2 6JE",51.514309,-0.186928,Public - Pay At Location,1,3.7,3.7,Slow,No,No,Yes
136270,Shell Recharge Solutions (UK),Unknown,Inverness Terrace 71,"Inverness Terrace 71, London, W2 3JT",51.51321,-0.186672,Public - Pay At Location,1,3.7,3.7,Slow,No,No,Yes
125892,BP Pulse (UK),Operational,Q-Park Queensway,"Q-Park Queensway, 26 Queensway, W2 4QJ",51.511299,-0.18702,Public - Membership Required,2,3.0,7.0,Fast,No,Yes,Yes
253557,Shell Recharge Solutions (UK),Unknown,Inverness Terrace 25,"Inverness Terrace 25, London, W2 3JR",51.511636,-0.186228,Public - Pay At Location,1,3.7,3.7,Slow,No,No,Yes
253571,Shell Recharge Solutions (UK),Unknown,36 Queensborough Terrace,"36 Queensborough Terrace, London, W2 3SH",51.512042,-0.185273,Public - Pay At Location,1,3.7,3.7,Slow,No,No,Yes
253561,Shell Recharge Solutions (UK),Unknown,39 Queensborough Terrace,"39 Queensborough Terrace, London, W2 3SY",51.511751,-0.185265,Public - Pay At Location,1,3.7,3.7,Slow,No,No,Yes
253539,Shell Recharge Solutions (UK),Unknown,6 Inverness Terrace,"6 Inverness Terrace, London, W2 3HU",51.511003,-0.185852,Public - Pay At Location,1,3.7,3.7,Slow,No,No,Yes
253545,Shell Recharge Solutions (UK),Unknown,10 Inverness Terrace,"10 Inverness Terrace, London, W2 6JE",51.511112,-0.185937,Public - Pay At Location,1,3.7,3.7,Slow,No,No,Yes
253535,Shell Recharge Solutions (UK),Unknown,Shell Recharge/Ubitricity,"null, London, W2 4RL",51.510754,-0.189171,Public - Pay At Location,1,5.0,5.0,Slow,No,No,Yes
253552,Shell Recharge Solutions (UK),Unknown,Shell Recharge/Ubitricity,"null, London, W2 4AU",51.511589,-0.188928,Public - Pay At Location,1,5.0,5.0,Slow,No,No,Yes
253630,Shell Recharge Solutions (UK),Unknown,12 Salem Road,"12 Salem Road, London, W2 4DL",51.513113,-0.18874,Public - Pay At Location,1,3.7,3.7,Slow,No,No,Yes
253697,Shell Recharge Solutions (UK),Unknown,67 Kensington Gardens Square,"67 Kensington Gardens Square, London, W2 4DJ",51.514734,-0.18989,Public - Pay At Location,1,3.7,3.7,Slow,No,No,Yes
253767,Shell Recharge Solutions (UK),Unknown,16 Hatherley Grove,"16 Hatherley Grove, London, W2 5RB",51.516238,-0.189634,Public - Pay At Location,1,3.7,3.7,Slow,No,No,Yes
136297,Shell Recharge Solutions (UK),Unknown,Porchester Square 47,"Porchester Square 47, London, W2 6AW",51.517973,-0.18621,Public - Membership Required,1,3.7,3.7,Slow,No,No,Yes
253847,Shell Recharge Solutions (UK),Unknown,18 Porchester Square,"18 Porchester Square, London, W2 6AN",51.518024,-0.187278,Public - Pay At Location,1,3.7,3.7,Slow,No,No,Yes
253710,Shell Recharge Solutions (UK),Unknown,(fhasinonista house),"(fhasinonista house), London, W2 6JF",51.515,-0.18727,Public - Pay At Location,1,4.8,4.8,Slow,No,No,Yes
136288,Shell Recharge Solutions (UK),Unknown,LC 4,"LC 4, London, W2 6BH",51.516985,-0.186279,Public - Membership Required,1,3.7,3.7,Slow,No,No,Yes
253822,Shell Recharge Solutions (UK),Unknown,Orsett Terrace 13,"Orsett Terrace 13, London, W2 6AJ",51.517429,-0.185289,Public - Pay At Location,1,3.7,3.7,Slow,No,No,Yes
253711,Shell Recharge Solutions (UK),Unknown,Opp.,"Opp., London, W2 6DE",51.515,-0.18377,Public - Pay At Location,1,5.0,5.0,Slow,No,No,Yes
253799,Shell Recharge Solutions (UK),Unknown,156 Gloucester Terrace,"156 Gloucester Terrace, London, W2 6HR",51.516934,-0.182852,Public - Pay At Location,1,3.7,3.7,Slow,No,No,Yes
253836,Shell Recharge Solutions (UK),Unknown,6 Orsett Terrace,"6 Orsett Terrace, London, W2 6AZ",51.517865,-0.183637,Public - Pay At Location,1,3.7,3.7,Slow,No,No,Yes
253848,Shell Recharge Solutions (UK),Unknown,Orsett Terrace,"Orsett Terrace, London, W2 6JU",51.518032,-0.183464,Public - Pay At Location,1,3.7,3.7,Slow,No,No,Yes
253845,Shell Recharge Solutions (UK),Unknown,Shell Recharge/Ubitricity,"null, London, W2 6HX",51.518,-0.18463,Public - Pay At Location,1,5.0,5.0,Slow,No,No,Yes
253843,Shell Recharge Solutions (UK),Unknown,Gloucester Terrace 180,"Gloucester Terrace 180, London, W2 6HX",51.517997,-0.184625,Public - Membership Required,1,3.7,3.7,Slow,No,No,Yes
253917,Shell Recharge Solutions (UK),Unknown,Shell Recharge/Ubitricity,"null, London, W2 6NG",51.52,-0.18457,Public - Pay At Location,1,5.0,5.0,Slow,No,No,Yes
173536,Shell Recharge Solutions (UK),Unknown,147 Westbourne Terrace,"147 Westbourne Terrace, London, W2 6PB",51.517347,-0.181788,Public - Pay At Location,1,3.7,3.7,Slow,No,No,Yes
173533,Shell Recharge Solutions (UK),Unknown,12 Cleveland Terrace,"12 Cleveland Terrace, London, W2 6QH",51.51677,-0.180927,Public - Pay At Location,1,3.7,3.7,Slow,No,No,Yes
253712,Shell Recharge Solutions (UK),Unknown,Shell Recharge/Ubitricity,"null, London, W2 6DH",51.515,-0.18171,Public - Pay At Location,1,5.0,5.0,Slow,No,No,Yes
253731,Shell Recharge Solutions (UK),Unknown,LC 28,"LC 28, London, W2 6DX",51.515544,-0.181022,Public - Membership Required,1,3.7,3.7,Slow,No,No,Yes
264642,Shell Recharge Solutions (UK),Unknown,Shell Recharge/Ubitricity,"null, London, W2 6HP",51.515,-0.18067,Public - Pay At Location,1,4.8,4.8,Slow,No,No,Yes
173547,Shell Recharge Solutions (UK),Unknown,Senior Street,"Senior Street, London, W2 5TL",51.521832,-0.188726,Public - Pay At Location,1,3.7,3.7,Slow,No,No,Yes
264664,Shell Recharge Solutions (UK),Unknown,Shell Recharge/Ubitricity,"null, London, W9 2JA",51.524,-0.18941,Public - Pay At Location,1,5.0,5.0,Slow,No,No,Yes
86168,Total Energies (UK),Operational,Delaware Road,"Delaware Road, LONDON, W9 4BJ",51.525355689,-0.188990324938,Public - Membership Required,2,4.0,7.0,Fast,No,Yes,Yes
254076,Shell Recharge Solutions (UK),Unknown,Sutherland Ave 107,"Sutherland Ave 107, London, W9 2QH",51.524833,-0.189069,Public - Pay At Location,1,3.7,3.7,Slow,No,No,Yes
254096,Shell Recharge Solutions (UK),Unknown,Sutherland Ave 108A,"Sutherland Ave 108A, London, W9 2QP",51.525263,-0.188221,Public - Pay At Location,1,3.7,3.7,Slow,No,No,Yes
254155,Shell Recharge Solutions (UK),Unknown,48 Castellain Road,"48 Castellain Road, London, W9 1HA",51.526601,-0.188301,Public - Pay At Location,1,3.7,3.7,Slow,No,No,Yes
254197,Shell Recharge Solutions (UK),Unknown,12 Lauderdale Road,"12 Lauderdale Road, London, W9 1LU",51.527691,-0.189138,Public - Pay At Location,1,3.7,3.7,Slow,No,No,Yes
254159,Shell Recharge Solutions (UK),Unknown,63 Castellain Road,"63 Castellain Road, London, W9 1HE",51.526738,-0.188926,Public - Pay At Location,1,3.7,3.7,Slow,No,No,Yes
254166,Shell Recharge Solutions (UK),Unknown,68 Castellain Road,"68 Castellain Road, London, W9 1EX",51.526823,-0.189108,Public - Pay At Location,1,3.7,3.7,Slow,No,No,Yes
254130,Shell Recharge Solutions (UK),Unknown,Shell Recharge/Ubitricity,"null, London, W9 1HQ",51.526,-0.18983,Public - Pay At Location,1,4.8,4.8,Slow,No,No,Yes
254222,Shell Recharge Solutions (UK),Unknown,157 Elgin Avenue,"157 Elgin Avenue, London, W9 1JH",51.528085,-0.189962,Public - Pay At Location,1,3.7,3.7,Slow,No,No,Yes
254219,Shell Recharge Solutions (UK),Unknown,183 Elgin Avenue,"183 Elgin Avenue, London, W9 1HU",51.528067,-0.189804,Public - Pay At Location,1,3.7,3.7,Slow,No,No,Yes
254232,Shell Recharge Solutions (UK),Unknown,214 Elgin Avenue,"214 Elgin Avenue, London, W9 3QR",51.528217,-0.189755,Public - Pay At Location,1,3.7,3.7,Slow,No,No,Yes
254235,Shell Recharge Solutions (UK),Unknown,183 Elgin Avenue,"183 Elgin Avenue, London, W9 3QR",51.528248,-0.189683,Public - Pay At Location,1,3.7,3.7,Slow,No,No,Yes
254261,Shell Recharge Solutions (UK),Unknown,o/s Elgin Mansions,"o/s Elgin Mansions, London, W9 1JJ",51.529,-0.18892,Public - Pay At Location,1,4.8,4.8,Slow,No,No,Yes
254216,Shell Recharge Solutions (UK),Unknown,Shell Recharge/Ubitricity,"null, London, W9 1NQ",51.528,-0.18846,Public - Pay At Location,1,5.0,5.0,Slow,No,No,Yes
53016,BP Pulse (UK),Operational,Biddulph Road,"Biddulph Road, London, W9 1JB",51.528702,-0.18818,Public - Membership Required,3,3.0,7.0,Fast,No,Yes,Yes
254295,Shell Recharge Solutions (UK),Unknown,Grantully Road,"Grantully Road, London, W9 1LN",51.529907,-0.188318,Public - Pay At Location,1,3.7,3.7,Slow,No,No,Yes
132789,Total Energies (UK),Operational,Biddulph Road,"11 Biddulph Road, London, W9 1LW",51.52945,-0.189159,Public - Membership Required,4,4.0,22.0,Fast,No,Yes,Yes
254224,Shell Recharge Solutions (UK),Unknown,209 Sutherland Avenue,"209 Sutherland Avenue, London, W9 1RU",51.528104,-0.182002,Public - Pay At Location,1,3.7,3.7,Slow,No,No,Yes
136390,Shell Recharge Solutions (UK),Unknown,Hall Rd 14,"Hall Rd 14, London, NW8 9RB",51.528809,-0.180621,Public - Pay At Location,1,3.7,3.7,Slow,No,No,Yes
254119,Shell Recharge Solutions (UK),Unknown,34 Randolph Avenue,"34 Randolph Avenue, London, W9 1BE",51.525684,-0.180587,Public - Pay At Location,1,3.7,3.7,Slow,No,No,Yes
254153,Shell Recharge Solutions (UK),Unknown,Shell Recharge/Ubitricity,"null, London, W9 1DE",51.526546,-0.180553,Public - Pay At Location,1,5.0,5.0,Slow,No,No,Yes
136369,Shell Recharge Solutions (UK),Unknown,LC 32,"LC 32, London, W9 1DE",51.526983,-0.181113,Public - Membership Required,1,3.7,3.7,Slow,No,No,Yes
254217,Shell Recharge Solutions (UK),Unknown,o/s Primary School,"o/s Primary School, London, W9 1DB",51.528,-0.1818,Public - Pay At Location,1,4.8,4.8,Slow,No,No,Yes
136367,Shell Recharge Solutions (UK),Unknown,Randolph Ave 88,"Randolph Ave 88, London, W9 1BG",51.526801,-0.182114,Public - Pay At Location,1,3.7,3.7,Slow,No,No,Yes
254144,Shell Recharge Solutions (UK),Unknown,Randolph Cres 37,"Randolph Cres 37, London, W9 1DP",51.526262,-0.182199,Public - Membership Required,1,3.7,3.7,Slow,No,No,Yes
254124,Shell Recharge Solutions (UK),Unknown,Shell Recharge/Ubitricity,"null, London, W9 1DP",51.52589,-0.182244,Public - Pay At Location,1,5.0,5.0,Slow,No,No,Yes
254151,Shell Recharge Solutions (UK),Unknown,69 Warrington Crescent,"69 Warrington Crescent, London, W9 1EH",51.526493,-0.183685,Public - Pay At Location,1,3.7,3.7,Slow,No,No,Yes
254121,Shell Recharge Solutions (UK),Unknown,53 Warrington Crescent,"53 Warrington Crescent, London, W9 1EH",51.525802,-0.183944,Public - Pay At Location,1,3.7,3.7,Slow,No,No,Yes
254154,Shell Recharge Solutions (UK),Unknown,181 Sutherland Avenue,"181 Sutherland Avenue, London, W9 1ET",51.526549,-0.185076,Public - Pay At Location,1,3.7,3.7,Slow,No,No,Yes
254157,Shell Recharge Solutions (UK),Unknown,62 Warrington Cres,"62 Warrington Cres, London, W9 1EP",51.526719,-0.183811,Public - Pay At Location,1,3.7,3.7,Slow,No,No,Yes
254163,Shell Recharge Solutions (UK),Unknown,187 Sutherland Avenue,"187 Sutherland Avenue, London, W9 1ET",51.526811,-0.184577,Public - Pay At Location,1,3.7,3.7,Slow,No,No,Yes
254173,Shell Recharge Solutions (UK),Unknown,180A Sutherland Avenue,"180A Sutherland Avenue, London, W9 1HR",51.526881,-0.184511,Public - Pay At Location,1,3.7,3.7,Slow,No,No,Yes
254165,Shell Recharge Solutions (UK),Unknown,176A Sutherland Avenue,"176A Sutherland Avenue, London, W9 1HR",51.526822,-0.184674,Public - Pay At Location,1,3.7,3.7,Slow,No,No,Yes
254190,Shell Recharge Solutions (UK),Unknown,5 Lauderdale Road,"5 Lauderdale Road, London, W9 1LT",51.527557,-0.184113,Public - Pay At Location,1,3.7,3.7,Slow,No,No,Yes
254206,Shell Recharge Solutions (UK),Unknown,81 Randolph Avenue,"81 Randolph Avenue, London, W9 1DL",51.527858,-0.183599,Public - Pay At Location,1,3.7,3.7,Slow,No,No,Yes
136376,Total Energies (UK),Unknown,Sutherland Avenue,"Sutherland Avenue, Maida Vale, W9 1RX",51.527633,-0.182701,Public - Membership Required,2,3.7,7.0,Fast,No,Yes,Yes
136380,Total Energies (UK),Unknown,196 Sutherland Avenue,"196 Sutherland Avenue, Maida Vale, W9 1RX",51.527759,-0.182649,Public,2,3.0,7.0,Fast,No,Yes,Yes
254283,Shell Recharge Solutions (UK),Unknown,LC 18,"LC 18, London, W9 1PB",51.529592,-0.184366,Public - Membership Required,1,3.7,3.7,Slow,No,No,Yes
254255,Shell Recharge Solutions (UK),Unknown,132 Randolph Avenue,"132 Randolph Avenue, London, W9 1PG",51.528842,-0.184681,Public - Pay At Location,1,3.7,3.7,Slow,No,No,Yes
254244,Shell Recharge Solutions (UK),Unknown,101 Randolph Avenue,"101 Randolph Avenue, London, W9 1DL",51.528423,-0.18427,Public - Pay At Location,1,3.7,3.7,Slow,No,No,Yes
264673,Shell Recharge Solutions (UK),Unknown,Shell Recharge/Ubitricity,"null, London, W9 1JY",51.528021,-0.185404,Public - Pay At Location,1,5.0,5.0,Slow,No,No,Yes
264676,Shell Recharge Solutions (UK),Unknown,Shell Recharge/Ubitricity,"null, London, W9 1JY",51.529,-0.18659,Public - Pay At Location,1,4.8,4.8,Slow,No,No,Yes
254282,Shell Recharge Solutions (UK),Unknown,143 Randolph Avenue,"143 Randolph Avenue, London, W9 1DN",51.529558,-0.185589,Public - Pay At Location,1,3.7,3.7,Slow,No,No,Yes
254301,Shell Recharge Solutions (UK),Unknown,opp. Ashworth Mansions,"opp. Ashworth Mansions, London, W9 1NH",51.53,-0.18725,Public - Pay At Location,1,4.8,4.8,Slow,No,No,Yes
254194,Shell Recharge Solutions (UK),Unknown,Lauderdale Rd 142,"Lauderdale Rd 142, London, W9 1NG",51.527639,-0.187875,Public - Pay At Location,1,3.7,3.7,Slow,No,No,Yes
254189,Shell Recharge Solutions (UK),Unknown,212 Lauderdale Road,"212 Lauderdale Road, London, W9 1NQ",51.527539,-0.187976,Public - Pay At Location,1,3.7,3.7,Slow,No,No,Yes
254192,Shell Recharge Solutions (UK),Unknown,Lauderdale Rd 194,"Lauderdale Rd 194, London, W9 1NQ",51.527625,-0.187234,Public - Pay At Location,1,3.7,3.7,Slow,No,No,Yes
254199,Shell Recharge Solutions (UK),Unknown,4 Biddulph Road,"4 Biddulph Road, London, W9 1JB",51.527772,-0.187086,Public - Pay At Location,1,3.7,3.7,Slow,No,No,Yes
264671,Shell Recharge Solutions (UK),Unknown,Shell Recharge/Ubitricity,"null, London, W9 1JY",51.528,-0.18591,Public - Pay At Location,1,4.8,4.8,Slow,No,No,Yes
254140,Shell Recharge Solutions (UK),Unknown,148A Sutherland Avenue,"148A Sutherland Avenue, London, W9 1HP",51.526172,-0.186022,Public - Pay At Location,1,3.7,3.7,Slow,No,No,Yes
254156,Shell Recharge Solutions (UK),Unknown,166 Sutherland Avenue,"166 Sutherland Avenue, London, W9 1HR",51.526623,-0.185353,Public - Pay At Location,1,3.7,3.7,Slow,No,No,Yes
254142,Shell Recharge Solutions (UK),Unknown,165 Sutherland Avenue,"165 Sutherland Avenue, London, W9 1ES",51.526238,-0.185549,Public - Pay At Location,1,3.7,3.7,Slow,No,No,Yes
254125,Shell Recharge Solutions (UK),Unknown,153 Sutherland Avenue,"153 Sutherland Avenue, London, W9 1ES",51.525966,-0.18631,Public - Pay At Location,1,3.7,3.7,Slow,No,No,Yes
254122,Shell Recharge Solutions (UK),Unknown,136 Sutherland Avenue,"136 Sutherland Avenue, London, W9 1HP",51.525863,-0.186645,Public - Pay At Location,1,3.7,3.7,Slow,No,No,Yes
254149,Shell Recharge Solutions (UK),Unknown,49 Castellain Road,"49 Castellain Road, London, W9 1HE",51.526371,-0.187801,Public - Pay At Location,1,3.7,3.7,Slow,No,No,Yes
254114,Shell Recharge Solutions (UK),Unknown,Sutherland Ave 120,"Sutherland Ave 120, London, W9 2QP",51.525559,-0.187553,Public - Pay At Location,1,3.7,3.7,Slow,No,No,Yes
254112,Shell Recharge Solutions (UK),Unknown,131 Sutherland Avenue,"131 Sutherland Avenue, London, W9 2QJ",51.525523,-0.187416,Public - Pay At Location,1,3.7,3.7,Slow,No,No,Yes
254079,Shell Recharge Solutions (UK),Unknown,119 Warwick Ave,"119 Warwick Ave, London, W9 2PP",51.524932,-0.187875,Public - Pay At Location,1,3.7,3.7,Slow,No,No,Yes
254063,Shell Recharge Solutions (UK),Unknown,Shell Recharge/Ubitricity,"null, London, W9 2PU",51.524492,-0.186964,Public - Pay At Location,1,5.0,5.0,Slow,No,No,Yes
